Code,CityName,CountryCode,StateCode,MetroCode,AssociatedAirports,AirportName,IsRail,Region1,Region2,Region3,Region4,Region5,Latitude,Longitude,
AAA,Anaa,PF,,,AAA,Anaa Arpt,N,,,,,,-17.3526001,-145.5099945,
AAB,Arrabury,AU,QLD,,AAB,Arrabury Airport,N,International,Pac-North,Australia,Australia,APAC,-26.693023,141.047771,
AAC,El Arish,EG,,,AAC,Al Arish International,N,,,,,,31.07329941,33.83580017,
AAD,ADADO,SO,,,AAD,Adado Airport,N,,,,,,6.095802,46.6375,
AAE,Annaba,DZ,,,AAE,Les Salines Arpt,N,,,,,,36.822201,7.809174,
AAF,Apalachicola,US,FL,,AAF,Apalachicola Municipal Arpt,N,,,,,,29.72750092,-85.02749634,
AAG,Arapoti,BR,PR,,AAG,Avelino Vieira Arpt,N,International,Latin America,South America,South America,South America,-24.10390091,-49.78910065,
AAH,Aachen,DE,,,AAH  AAW  XHJ,Aachen Merzbruck Arpt,N,,,,,,50.82305527,6.186388969,
AAK,Aranuka,KI,,,AAK,Aranuka Airport,N,,,,,,0.185277998,173.6369934,
AAL,Aalborg,DK,,,AAL  ZTG,Aalborg Arpt,N,International,EMEA,Atlantic,Europe,EMEA,57.09275891,9.849243164,
AAM,Mala Mala,ZA,,,AAM,Mala Mala Arpt,N,,,,,,-24.81809998,31.54459953,
AAN,Al Ain,AE,,,AAN  ZVH,Al Ain Arpt,N,International,EMEA,Middle East,Asia,EMEA,24.26169968,55.60919952,
QAJ,Ajman City,AE,,,,,N,,,,,,,,
AAQ,Anapa,RU,,,AAQ,Anapa Arpt,N,,,,,,45.0021019,37.34730148,
AAR,Aarhus,DK,,,AAR  AJH  ZID  ZJH,Tirstrup Arpt,N,International,EMEA,Atlantic,Europe,EMEA,56.29999924,10.61900043,
AAT,Altay,CN,,,AAT,Altay Arpt,N,,,,,,47.74988556,88.0858078,
AAU,Asau,WS,,,AAU,Asau Airport,N,,,,,,-13.505132,-172.627888,
AAX,Araxa,BR,MG,,AAX,Araxa Airport,N,,,,,,-19.5632,-46.96039963,
AAY,Al Ghaydah,YE,,,AAY,Al Ghaydah Arpt,N,,,,,,16.19169998,52.17499924,
AAZ,Quetzaltenango,GT,,,AAZ,Quetzaltenango Arpt,N,,,,,,14.8656,-91.501999,
ABA,Abakan,RU,,,ABA,Abakan Arpt,N,International,EMEA,Asia,Europe,Russia,53.74000168,91.38500214,
ABB,Asaba,NG,,,ABB,Asaba International Arpt,N,,,,,,6.204167,6.665278,
ABC,Albacete,ES,,,ABC  EEM  XJJ,Albacete Arpt,N,,,,,,38.94850159,-1.863520026,
ABD,Abadan,IR,,,ABD,Abadan Arpt,N,,,,,,30.37109947,48.22829819,
ABE,Allentown,US,PA,,ABE,Lehigh Valley Intl Arpt,N,North America,North America,North America,North America,North America,40.65209961,-75.44080353,
ARZ,N Zeto,AO,,,,,N,,,,,,-7.259439945,12.86310005,
CAB,Cabinda,AO,,,,,N,,,,,,-5.596990108,12.18840027,
ABI,Abilene,US,TX,,ABI  DYS,Abilene Municipal Arpt,N,North America,North America,North America,North America,North America,32.41130066,-99.68190002,
ABJ,Abidjan,CI,,,ABJ,Felix Houphouet Boigny Arpt,N,,,,,,5.261390209,-3.926290035,
CEO,Waco Kungo,AO,,,,,N,,,,,,-11.42640018,15.10140038,
ABL,Ambler,US,AK,,ABL,Ambler Arpt,N,North America,North America,North America,North America,North America,67.1063,-157.856989,
ABM,Bamaga,AU,QLD,,ABM,Bamaga Arpt,N,,,,,,-10.9508,142.459,
ABQ,Albuquerque,US,NM,,ABQ,Albuquerque Intl Sunport,N,North America,North America,North America,North America,North America,35.040199,-106.609001,
ABR,Aberdeen,US,SD,,ABR,Aberdeen Regional Arpt,N,North America,North America,North America,North America,North America,45.44910049,-98.42179871,
ABS,Abu Simbel,EG,,,ABS,Abu Simbel Arpt,N,,,,,,22.37599945,31.61170006,
ABT,Al Baha,SA,,,ABT,Al Aqiq,N,,,,,,20.29610062,41.63430023,
DUE,Dundo,AO,,,,,N,,,,,,-7.400889874,20.81850052,
ABV,Abuja,NG,,,ABV,Abuja Intl,N,,,,,,9.006790161,7.263169765,
ABX,Albury,AU,NSW,,ABX,Albury Airport,N,,,,,,-36.06779861,146.9579926,
ABY,Albany,US,GA,,ABY,Southwest Georgia Regional Arpt,N,North America,North America,North America,North America,North America,31.53549957,-84.19450378,
ABZ,Aberdeen,GB,,,ABZ  ZXA,Dyce Airport,N,International,EMEA,Atlantic,Europe,EMEA,57.20190048,-2.197779894,
ACA,Acapulco,MX,,,ACA,Alvarez Intl Arpt,N,International,Latin America,Mexico,North America,Mexico,16.75709915,-99.7539978,
ACC,Accra,GH,,,ACC,Kotoka Airport,N,,,,,,5.6051898,-0.166786,
ACD,Acandi,CO,,,ACD,Aeropuerto Alcides Fernandez,N,International,Latin America,South America,South America,South America,8.51667,-77.3,
ACE,Lanzarote,ES,,,ACE,Lanzarote Airport,N,International,EMEA,Atlantic,Europe,EMEA,28.945499,-13.6052,
ACH,Altenrhein,CH,,,ACH,Altenrhein Arpt,N,International,EMEA,Atlantic,Europe,EMEA,47.48500061,9.560770035,
ACI,Alderney,GB,,,ACI,The Blaye Arpt,N,International,EMEA,Atlantic,Europe,EMEA,49.706104,-2.21472,
MEG,Malange,AO,,,,,N,,,,,,-9.525090218,16.31240082,
ACK,Nantucket,US,MA,,ACK,Nantucket Memorial,N,North America,North America,North America,North America,North America,41.25310135,-70.06020355,
ACO,Ascona,CH,,,ACO,Ascona Arpt,N,,,,,,46.15779877,8.78194046,
ACR,Araracuara,CO,,,ACR,Araracuara Arpt,N,,,,,,-0.5833,-72.4083,
ACT,Waco,US,TX,,ACT  CNW,Waco Regional Arpt,N,North America,North America,North America,North America,North America,31.61129951,-97.23049927,
ACV,Arcata,US,CA,,ACV,Arcata Arpt,N,North America,North America,North America,North America,North America,40.978101,-124.109,
ACX,Xingyi,CN,,,ACX,Xingyi Arpt,N,,,,,,25.08638889,104.9594444,
ACY,Atlantic City,US,NJ,,ACY  JSL  ZRA,Atlantic City Intl Arpt,N,North America,North America,North America,North America,North America,39.45759964,-74.57720184,
ADA,Adana,TR,,,ADA  UAB,Adana Arpt,N,,,,,,36.98220062,35.28039932,
ADB,Ephesus,TR,,,,Adnan Menderes Airport,N,,,,,,38.29240036,27.15699959,
ADD,Addis Ababa,ET,,,ADD,Bole Airport,N,,,,,,8.977890015,38.79930115,
ADE,Aden,YE,,,ADE,Yemen Intl Arpt,N,,,,,,12.8295002,45.02880096,
ADF,Adiyaman,TR,,,ADF,Adiyaman Arpt,N,International,EMEA,Middle East,Europe,EMEA,37.73139954,38.46889877,
ADG,Adrian,US,MI,,ADG,Lenawee County Arpt,N,,,,,,41.86769867,-84.07730103,
ADH,Aldan,RU,,,ADH,Aldan Airport,N,,,,,,58.60279846,125.4089966,
ADK,Adak Island,US,AK,,ADK,Adak Island Ns,N,North America,North America,North America,North America,North America,51.87799835,-176.6459961,
ADL,Adelaide,AU,SA,,ADL  XHX,Adelaide Arpt,N,,,,,,-34.945,138.531006,
ADM,Ardmore,US,OK,,ADM  AHD,Ardmore Municipal Arpt,N,North America,North America,North America,North America,North America,34.30301,-97.0196342,
ADQ,Kodiak,US,AK,,ADQ  KDK  WDY,Kodiak Arpt,N,North America,North America,North America,North America,North America,57.75,-152.4940033,
ADT,Ada OK,US,OK,,ADT,Ada Municipal Arpt,N,,,,,,34.804298,-96.671303,
ADU,Ardabil,IR,,,ADU,Ardabil Arpt,N,,,,,,38.32569885,48.42440033,
ADW,Camp Springs,US,MD,,ADW  NSF,Andrews Air Force Base,N,,,,,,38.810799,-76.866997,
ADX,St Andrews,GB,,,ADX,Leuchars Arpt,N,,,,,,56.3728981,-2.868439913,
ADZ,San Andres,CO,,,ADZ,Gustavo R Pinilla Intl,N,,,,,,12.5836,-81.7112,
SPP,Menongue,AO,,,,,N,,,,,,-14.6576004,17.71980095,
AEB,Baise,CN,,,AEB,Youjiang Arpt,N,International,Pac-North,Asia,Asia,APAC,23.72060013,106.9599991,
AED,Aleneva,US,AK,,AED,Aleneva Arpt,N,,,,,,,,
APZ,Zapala,AR,,,,,N,,,,,,-38.975498,-70.113602,
AEI,Algeciras,ES,,,AEI  AXI,Algeciras Arpt,N,,,,,,36.12888,-5.441118,
AEL,Albert Lea,US,MN,,AEL,Albert Lea Arpt,N,,,,,,43.68149948,-93.36720276,
AEM,Amgu,RU,,,AEM,Amgu Airport,N,,,,,,45.84126,137.673568,
ARR,Alto Rio Senguerr,AR,,,,,N,International,Latin America,South America,South America,South America,-45.013599,-70.812202,
AER,Sochi,RU,,,AER,Sochi Intl Arpt,N,International,EMEA,Asia,Europe,Russia,43.449902,39.9566,
AES,Aalesund,NO,,,AES,Vigra Airport,N,International,EMEA,Atlantic,Europe,EMEA,62.5625,6.119699955,
BUE,Buenos Aires,AR,,BUE,AEP  BBE  EZE,,N,,,,,,,,
AEX,Alexandria,US,LA,,AEX  ESF,Alexandria Intl Arpt,N,North America,North America,North America,North America,North America,31.32740021,-92.54979706,
AEY,Akureyri,IS,,,AEY,Akureyri,N,,,,,,65.66000366,-18.0727005,
AFA,San Rafael,AR,,,AFA,San Rafael Arpt,N,,,,,,-34.588299,-68.4039,
AFD,Port Alfred,ZA,,,AFD,Port Alfred Airport,N,,,,,,-33.55419922,26.87770081,
AFK,Ampara,LK,,,AFK,Kondavattavan Tank Arpt,N,International,Pac-North,Asia,Asia,Pac-North,7.284,81.644,
AFL,Alta Floresta,BR,MT,,AFL,Oswaldo Marques Dias Arpt,N,International,Latin America,South America,South America,South America,-9.866389275,-56.10499954,
CCT,Colonial Catriel,AR,,,,,N,International,Latin America,South America,South America,South America,-37.91019821,-67.83499908,
AFS,Zarafsan,UZ,,,AFS,Zarafshan Airport,N,International,EMEA,Middle East,Asia,EMEA,41.61389923,64.23320007,
AFY,Afyon,TR,,,AFY,Afyon Arpt,N,,,,,,38.72639847,30.60110092,
AGA,Agadir,MA,,,AGA,Agadir Almassira Arpt,N,,,,,,30.32500076,-9.413069725,
AGB,Augsburg,DE,,,AGB  AGY  AUB,Munich Augsburg Airport,N,,,,,,48.425278,10.931667,
AGE,Wangerooge,DE,,,AGE,Flugplatz Arpt,N,International,EMEA,Atlantic,Europe,EMEA,53.78277969,7.913888931,
AGF,Agen,FR,,,AGF,La Garenne Arpt,N,International,EMEA,Atlantic,Europe,EMEA,44.17470169,0.590556026,
AGH,Angelholm,SE,,,AGH  XYQ,Angelholm Helsingborg Arpt,N,International,EMEA,Atlantic,Europe,EMEA,56.29610062,12.84710026,
CUT,Cutral Co,AR,,,,,N,International,Latin America,South America,South America,South America,-38.93970108,-69.26460266,
EMX,El Maiten,AR,,,,,N,International,Latin America,South America,South America,South America,-42.02920151,-71.17250061,
AGM,Tasiilaq,GL,,,AGM,Tasiilaq Heliport,N,,,,,,,,
AGN,Angoon,US,AK,,AGN,Angoon Seaplane base,N,North America,North America,North America,North America,North America,57.503601,-134.585007,
AGO,Magnolia,US,AR,,AGO,Magnolia Municipal,N,North America,North America,North America,North America,North America,33.22800064,-93.21700287,
AGP,Malaga,ES,,,AGP  YJM,Malaga Arpt,N,International,EMEA,Atlantic,Europe,EMEA,36.67490005,-4.499110222,
AGQ,Agrinion,GR,,,AGQ,Agrinion Arpt,N,,,,,,38.602001,21.3512001,
AGR,Agra,IN,,,AGR,Kheria Arpt,N,,,,,,27.15579987,77.96089935,
AGS,Augusta,US,GA,,AGS  DNL,Augusta Regional Bush Field Arpt,N,North America,North America,North America,North America,North America,33.36989975,-81.96450043,
AGT,Ciudad Del Este,PY,,,AGT,Guarani Intl,N,International,Latin America,South America,South America,Latin America,-25.454516,-54.842682,
AGU,Aguascalientes,MX,,,AGU,Aguascalientes Municipal Arpt,N,International,Latin America,Mexico,North America,Mexico,21.705601,-102.318001,
GGS,Gobernador Gregores,AR,,,,,N,International,Latin America,South America,South America,South America,-48.7831,-70.150002,
AGX,Agatti Island,IN,,,AGX,Agatti Aerodrome,N,International,Pac-North,Asia,Asia,APAC,10.82369995,72.1760025,
GPO,General Pico,AR,,,,,N,,,,,,-35.69620132,-63.75830078,
AHB,Abha,SA,,,AHB,Abha Airport,N,,,,,,18.24040031,42.65660095,
AHC,Herlong,US,CA,,AHC,Herlong Arpt,N,,,,,,40.26620102,-120.1529999,
AHE,AHE Atoll,PF,,,AHE,AHE Airport,N,,,,,,-14.42809963,-146.2570038,
AHI,Amahai,ID,,,AHI,Amahai Airport,N,,,,,,-3.34800005,128.9259949,
AHJ,Aba Hongyuan,CN,,,AHJ,Aba Hongyuan Airport,N,,,,,,32.53154,102.35224,
AHN,Athens,US,GA,,AHN,Athens Municipal,N,North America,North America,North America,North America,North America,33.94860077,-83.32630157,
AHO,Alghero,IT,,,AHO,Fertilia Arpt,N,International,EMEA,Atlantic,Europe,EMEA,40.632099,8.29077,
ING,Lago Argentino,AR,,,,,N,,,,,,-50.336102,-72.248596,
AHU,Al Hoceima,MA,,,AHU,Charif Al Idrissi Arpt,N,,,,,,35.17710114,-3.839519978,
AIA,Alliance,US,NE,,AIA,Alliance Municipal,N,North America,North America,North America,North America,North America,42.05319977,-102.8040009,
AIB,Anita Bay,US,AK,,AIB,Anita Bay Arpt,N,,,,,,,,
AID,Anderson,US,IN,,AID,Anderson Municipal Arpt,N,North America,North America,North America,North America,North America,40.10860062,-85.61299896,
JSM,Jose De San Martin,AR,,,,,N,International,Latin America,South America,South America,South America,-44.04859924,-70.45890045,
NEC,Necochea,AR,,,,,N,,,,,,-38.4831,-58.8172,
AIK,Aiken,US,SC,,AIK,Aiken Municipal Arpt,N,North America,North America,North America,North America,North America,33.6493988,-81.68499756,
AIN,Wainwright,US,AK,,AIN,Wainwright Municipal Arpt,N,North America,North America,North America,North America,North America,70.63800049,-159.9949951,
AIO,Atlantic,US,IA,,AIO,Municipal Atlantic Arpt,N,,,,,,41.40729904,-95.04689789,
AIP,Adampur,IN,,,AIP,Adampur Airport,N,,,,,,31.4338,75.758797,
OES,San Antonio Oeste,AR,,,,,N,,,,,,-40.7512,-65.0343,
OLN,Colonia Sarmiento,AR,,,,,N,International,Latin America,South America,South America,South America,-45.582371,-68.999841,
AIT,Aitutaki,CK,,,AIT,Aitutaki Arpt,N,,,,,,-18.83090019,-159.7640076,
PMQ,Perito Moreno,AR,,,,,N,,,,,,-46.537899,-70.978699,
AIV,Aliceville,US,AL,,AIV,Aliceville Arpt,N,,,,,,33.106499,-88.1978,
AIZ,Lake Of The Ozarks,US,MO,,AIZ,Lee C Fine Memorial,N,North America,North America,North America,North America,North America,38.09600067,-92.54949951,
AJA,Ajaccio,FR,,,AJA,Napoleon Bonaparte Arpt,N,,,,,,41.92359924,8.802920341,
AJF,Al Jouf,SA,,,AJF,Jouf Airport,N,,,,,,29.78510094,40.09999847,
AJI,Agri,TR,,,AJI,Agri Airport,N,,,,,,39.65454102,43.02597809,
AJL,Aizawl,IN,,,AJL,Lengpui Airport,N,International,Pac-North,Asia,Asia,APAC,23.84059906,92.61969757,
PUD,Puerto Deseado,AR,,,,,N,,,,,,-47.7353,-65.9041,
AJR,Arvidsjaur,SE,,,AJR,Arvidsjaur Arpt,N,International,EMEA,Atlantic,Europe,EMEA,65.59030151,19.28190041,
AJU,Aracaju,BR,SE,,AJU,Santa Maria Arpt,N,,,,,,-10.98400021,-37.07030106,
AKA,Ankang,CN,,,AKA,Wulipu Arpt,N,,,,,,32.708099,108.931,
AKB,Atka,US,AK,,AKB,Atka Arpt,N,North America,North America,North America,North America,North America,52.22029877,-174.2059937,
AKD,Akola,IN,,,AKD,Akola Airport,N,International,Pac-North,Asia,Asia,APAC,20.698999,77.058601,
RCQ,Reconquista,AR,,,,,N,,,,,,-29.2103,-59.68,
ROY,Rio Mayo,AR,,,,,N,International,Latin America,South America,South America,South America,-45.70389938,-70.24559784,
RYO,Rio Turbio,AR,,,,,N,International,Latin America,South America,South America,South America,-51.605,-72.2203,
AKJ,Asahikawa,JP,,,AKJ,Asahikawa Arpt,N,International,Pac-North,Asia,Asia,APAC,43.67079926,142.4470062,
AKK,Akhiok,US,AK,,AKK,Akhiok Arpt,N,North America,North America,North America,North America,North America,56.93870163,-154.1829987,
AKL,Auckland,NZ,,,AKL  MHB,Auckland Arpt,N,,,,,,-37.0080986,174.7920074,
AKN,King Salmon,US,AK,,AKN,King Salmon Arpt,N,North America,North America,North America,North America,North America,58.67679977,-156.6490021,
AKO,Akron,US,CO,,AKO,Washington County,N,,,,,,40.17559814,-103.2220001,
RZA,Santa Cruz,AR,,,,,N,,,,,,-50.0165,-68.5792,
SGV,Sierra Grande,AR,,,,,N,International,Latin America,South America,South America,South America,-41.59170151,-65.33940125,
AKS,Auki,SB,,,AKS,Gwaunaruu Airport,N,,,,,,-8.70257,160.682007,
AKU,Aksu,CN,,,AKU,Aksu Arpt,N,,,,,,41.262501,80.291702,
AKV,Akulivik,CA,PQ,,AKV,Akulivik Arpt,N,,,,,,60.8185997,-78.14859772,
AKX,Aqtobe,KZ,,,AKX,Aqtobe Arpt,N,International,EMEA,Asia,Asia,Russia,50.2458,57.206699,
AKY,Sittwe,MM,,,AKY,Sittwe Arpt,N,,,,,,20.13269997,92.87259674,
ALA,Almaty,KZ,,,ALA,Almaty Arpt,N,,,,,,43.35210037,77.04049683,
ALB,Albany,US,NY,,ALB  ZLY,Albany Cty Arpt,N,North America,North America,North America,North America,North America,42.74829865,-73.80169678,
ALC,Alicante,ES,,,ALC  YJE,Alicante Arpt,N,International,EMEA,Atlantic,Europe,EMEA,38.28219986,-0.558156013,
ULA,San Julian,AR,,,,,N,,,,,,-49.3068,-67.8026,
ALE,Alpine,US,TX,,ALE,Casparis Municipal Arpt,N,North America,North America,North America,North America,North America,30.38419914,-103.6839981,
ALF,Alta,NO,,,ALF,Elvebakken Arpt,N,International,EMEA,Atlantic,Europe,EMEA,69.97609711,23.37170029,
ALG,Algiers,DZ,,,ALG,Houari Boumedienne Arpt,N,,,,,,36.69100189,3.215409994,
ALH,Albany,AU,WA,,ALH,Albany Airport,N,,,,,,-34.94329834,117.8089981,
ALI,Alice,US,TX,,ALI,Alice International Airport,N,North America,North America,North America,North America,North America,27.74090004,-98.02690125,
ALJ,Alexander Bay,ZA,,,ALJ,Kortdoorn Arpt,N,,,,,,-28.575001,16.5333,
ALL,Albenga,IT,,,ALL,Albenga Arpt,N,International,EMEA,Atlantic,Europe,EMEA,44.050598,8.12743,
ALM,Alamogordo,US,NM,,ALM  HMN,Alamogordo Municipal,N,North America,North America,North America,North America,North America,32.83990097,-105.9909973,
ANT,St Anton,AT,,,,,N,International,Pac-North,Australia,Australia,APAC,47.234444,11.40388889,
ALO,Waterloo,US,IA,,ALO,Livingston Betsworth Fld,N,North America,North America,North America,North America,North America,42.55709839,-92.40029907,
ALP,Aleppo,SY,,,ALP,Nejrab Arpt,N,,,,,,36.18069839,37.22439957,
ALQ,Alegrete,BR,RS,,ALQ,G Machado Ramos Arpt,N,,,,,,-29.81270027,-55.89339828,
ALR,Alexandra,NZ,,,ALR,Alexandra Arpt,N,,,,,,-45.21170044,169.3730011,
ALS,Alamosa,US,CO,,ALS,San Luis Valley Rgnl Arpt,N,North America,North America,North America,North America,North America,37.434898,-105.866997,
QDI,Dornbirn,AT,,,,,N,,,,,,,,
ALV,Andorra La Vella,AD,,,ALV,Andorra La Vella Hlpt,N,,,,,,42.511174,1.533551,
ALW,Walla Walla,US,WA,,ALW,Walla Walla Regional Arpt,N,North America,North America,North America,North America,North America,46.09489822,-118.288002,
ALX,Alexander City,US,AL,,ALX,Thomas C Russell Field,N,North America,North America,North America,North America,North America,32.91469955,-85.96299744,
ALY,Alexandria,EG,,,ALY,El Nouzha Arpt,N,International,EMEA,Africa,Africa,EMEA,31.18390083,29.94890022,
XOH,KITZBUEHEL,AT,,,XJS,,N,,,,,,,,
AMA,Amarillo,US,TX,,AMA  TDW,Amarillo Rick Husband Intl Arpt,N,North America,North America,North America,North America,North America,35.219398,-101.706001,
XOO,Soelden,AT,,,,,N,,,,,,,,
AMD,Ahmedabad,IN,,,AMD,Sardar Vallabh Bhai Patel Intl Arpt,N,,,,,,23.07719994,72.63469696,
AMH,Arba Minch,ET,,,AMH,Arba Minch Airport,N,,,,,,6.039390087,37.59049988,
AMI,Mataram,ID,,,AMI,Selaparang Airport,N,,,,,,-8.560709953,116.0950012,
AMJ,Almenara,BR,MG,,AMJ,Cirilo Queiroz,N,,,,,,-16.18389,-40.66722,
XOW,Seefeld,AT,,,,,N,,,,,,,,
AMM,Amman,JO,,,ADJ  AMM,Queen Alia Intl Arpt,N,,,,,,31.72260094,35.99319839,
ZRS,Zurs Lech,AT,,,,,N,,,,,,,,
AMQ,Ambon,ID,,,AMQ,Pattimura Arpt,N,,,,,,-3.710259914,128.0890045,
AMS,Amsterdam,NL,,,AMS  DJK  ZYA,Schiphol Arpt,N,International,EMEA,Atlantic,Europe,EMEA,52.308601,4.76389,
ABH,Alpha,AU,QLD,,,,N,,,,,,-23.646099,146.584,
AMW,Ames,US,IA,,AMW,Ames Minicipal Arpt,N,North America,North America,North America,North America,North America,41.992001,-93.621803,
AWN,Alton Downs,AU,SA,,,,N,International,Pac-North,Australia,Australia,APAC,-26.5333004,139.2669983,
AMZ,Ardmore,NZ,,,AMZ,Ardmore Airport,N,International,Pac-South,Australia,Australia,APAC,-37.02970123,174.9730072,
ANA,Angama,KE,,,ANA,Angama Mara Airport,N,North America,North America,North America,North America,North America,-1.27156,34.955513,
ANB,Anniston,US,AL,,ANB  QAW  RLI,Anniston Municipal Arpt,N,North America,North America,North America,North America,North America,33.58819962,-85.85810089,
ANC,Anchorage,US,AK,,ANC  EDF  FRN  MRI,Anchorage Ted Stevens Intl Arpt,N,North America,North America,North America,North America,North America,61.17440033,-149.9960022,
AND,Anderson,US,SC,,AND,Anderson Arpt,N,North America,North America,North America,North America,North America,34.49459839,-82.70939636,
ANE,Angers,FR,,,ANE  QXG,Marce Arpt,N,International,EMEA,Atlantic,Europe,EMEA,47.560299,-0.312222,
ANF,Antofagasta,CL,,,ANF,Cerro Moreno Arpt,N,,,,,,-23.44449997,-70.44509888,
ANG,Angouleme,FR,,,ANG,Brie Champniers,N,International,EMEA,Atlantic,Europe,EMEA,45.72919846,0.221456006,
ANI,Aniak,US,AK,,ANI,Aniak Arpt,N,North America,North America,North America,North America,North America,61.58160019,-159.5429993,
AWP,Austral Downs,AU,NT,,,,N,International,Pac-North,Australia,Australia,APAC,-20.5,137.75,
ANK,Ankara,TR,,,ANK  ESB,Etimesgut Arpt,N,,,,,,39.94979858,32.68859863,
AXL,Alexandria,AU,NT,,,,N,International,Pac-North,Australia,Australia,APAC,-19.06019974,136.7100067,
ANN,Annette Island,US,AK,,ANN,Annette Island Arpt,N,North America,North America,North America,North America,North America,55.04240036,-131.5720062,
ANP,Annapolis,US,MD,,ANP,Lee Annapolis Arpt,N,,,,,,38.942902,-76.568398,
ANR,Antwerp,BE,,ANR,ANR  ZAY  ZWE  ZYZ,Antwerp Brussels North,N,,,,,,51.18939972,4.460279942,
BXG,Bendigo,AU,VIC,,,,N,International,Pac-North,Australia,Australia,APAC,-36.73939896,144.3300018,
BZD,Balranald,AU,NSW,,,,N,International,Pac-North,Australia,Australia,APAC,-34.62360001,143.5780029,
ANU,Antigua,AG,,,ANU,V C Bird Intl Arpt,N,,,,,,17.1367,-61.792702,
CBX,Condobolin,AU,NSW,,,,N,,,,,,-33.06439972,147.2089996,
ANW,Ainsworth,US,NE,,ANW,Ainsworth Minicipal Arpt,N,,,,,,42.579201,-99.992996,
ANX,Andenes,NO,,,ANX,Andenes Arpt,N,International,EMEA,Atlantic,Europe,EMEA,69.29250336,16.14419937,
CCL,Chinchilla,AU,QLD,,,,N,International,Pac-North,Australia,Australia,APAC,-26.77499962,150.6170044,
AOC,Altenburg,DE,,,AOC,Altenburg Nobitz Arpt,N,,,,,,50.98194504,12.50638866,
AOE,Eskisehir City,TR,,,,Anadolu University Arpt,N,,,,,,39.809898,30.5194,
AOG,Anshan,CN,,,AOG  VBL,Anshan Air base,N,,,,,,41.105301,122.853996,
AOH,Lima,US,OH,,AOH,Allen County Arpt,N,,,,,,40.706902,-84.026703,
AOI,Ancona,IT,,,AOI,Falconara Arpt,N,International,EMEA,Atlantic,Europe,EMEA,43.616299,13.3623,
AOJ,Aomori,JP,,,AOJ,Aomori Arpt,N,International,Pac-North,Asia,Asia,APAC,40.73469925,140.6909943,
AOK,Karpathos,GR,,,AOK,Karpathos Arpt,N,International,EMEA,Atlantic,Europe,EMEA,35.42139816,27.14599991,
AOL,Paso De Los Libres,AR,,,AOL,Paso De Los Libres Arpt,N,International,Latin America,South America,South America,South America,-29.6894,-57.1521,
AOO,Altoona,US,PA,,AOO,Blair Cty Arpt,N,North America,North America,North America,North America,North America,40.29639816,-78.31999969,
AOQ,Aappilattoq,GL,,,AOQ,Aappilattoq Heliport,N,,,,,,,,
AOR,Alor Setar,MY,,,AOR,Sultan Abdul Halim Arpt,N,,,,,,6.189670086,100.3980026,
AOS,Amook Bay,US,AK,,AOS,Amook Bay Sea Plane Base,N,North America,North America,North America,North America,North America,57.4715004,-153.8150024,
AOT,Aosta,IT,,,AOT,Corrado Gex Arpt,N,,,,,,45.738499,7.36872,
APC,Napa,US,CA,,APC,Napa Cty Arpt,N,North America,North America,North America,North America,North America,38.2132,-122.280998,
APF,Naples,US,FL,FMY,APF,Naples Municipal,N,North America,North America,North America,North America,North America,26.15259933,-81.77529907,
APG,Aberdeen,US,MD,,APG,Phillips Army Air Field,N,North America,North America,North America,North America,North America,39.466202,-76.1688,
CCW,Cowell,AU,SA,,,,N,International,Pac-North,Australia,Australia,APAC,-33.66669846,136.8919983,
CDQ,Croydon,AU,QLD,,,,N,,,,,,-18.22500038,142.2579956,
APL,Nampula,MZ,,,APL,Nampula Arpt,N,,,,,,-15.10560036,39.28179932,
APN,Alpena,US,MI,,APN,Phelps Collins Arpt,N,North America,North America,North America,North America,North America,45.0780983,-83.56030273,
APO,Apartado,CO,,,APO,Carepa A R Betancourt Arpt,N,International,Latin America,South America,South America,South America,7.81196,-76.7164,
APS,Anapolis,BR,GO,,APS,Anapolis Arpt,N,International,Latin America,South America,South America,South America,-16.36230087,-48.92710114,
APV,Applevalley,US,CA,,APV,Apple Valley Arpt,N,North America,North America,North America,North America,North America,34.57529831,-117.185997,
APW,Apia,WS,,,APW  FGI,Apia Airport,N,,,,,,-13.82999992,-172.0079956,
CFH,Clifton Hills,AU,SA,,,,N,International,Pac-North,Australia,Australia,APAC,-27.0182991,138.8919983,
AQA,Araraquara,BR,SP,,AQA,Bartolomeu de Gusmao Arpt,N,International,Latin America,South America,South America,South America,-21.81200027,-48.13299942,
AQG,Anqing,CN,,,,Anqing Arpt,N,,,,,,30.582199,117.050003,
AQI,Qaisumah,SA,,,AQI,Qaisumah Arpt,N,,,,,,28.335199,46.125099,
AQJ,Aqaba,JO,,,AQJ,Aqaba Airport,N,,,,,,29.61160088,35.01810074,
AQM,Ariquemes,BR,RO,,AQM,Ariquemes Arpt,N,International,Latin America,South America,South America,South America,-10.17805576,-62.82555771,
AQP,Arequipa,PE,,,AQP,Rodriguez Ballon Intl,N,,,,,,-16.34110069,-71.58309937,
AQY,Girdwood,US,AK,,AQY,Girdwood Arpt,N,,,,,,60.966099,-149.126007,
ARA,NEW IBERIA,US,LA,,ARA,Acadiana Regional,N,,,,,,30.0378,-91.883904,
ARB,Ann Arbor,US,MI,,ARB,Ann Arbor Municipal,N,North America,North America,North America,North America,North America,42.22299957,-83.74559784,
ARC,Arctic Village,US,AK,,ARC,Arctic Village Arpt,N,North America,North America,North America,North America,North America,68.1147,-145.578995,
CMD,Cootamundra,AU,NSW,,,,N,,,,,,-34.62390137,148.0279999,
CUD,Caloundra,AU,QLD,,,,N,,,,,,-26.79999924,153.1000061,
ARG,Walnut Ridge,US,AR,,ARG,Walnut Ridge Regional Arpt,N,,,,,,36.124667,-90.925111,
ARH,Arkhangelsk,RU,,,ARH,Arkhangelsk Arpt,N,International,EMEA,Asia,Europe,Russia,64.60030365,40.71670151,
ARI,Arica,CL,,,ARI,Chacalluta Arpt,N,,,,,,-18.348499,-70.338699,
ARK,Arusha,TZ,,,ARK,Arusha Arpt,N,International,EMEA,Africa,Africa,EMEA,-3.367789984,36.63330078,
CWR,Cowarie,AU,SA,,,,N,International,Pac-North,Australia,Australia,APAC,-27.71170044,138.3280029,
ARM,Armidale,AU,NSW,,ARM,Armidale Arpt,N,,,,,,-30.52809906,151.6170044,
CXT,Charters Towers,AU,QLD,,,,N,,,,,,-20.04310036,146.272995,
DDN,Delta Downs,AU,QLD,,,,N,,,,,,-16.99169922,141.3170013,
ART,Watertown,US,NY,,ART,Watertown Intl Arpt,N,North America,North America,North America,North America,North America,43.9919014,-76.021698,
ARU,Aracatuba,BR,SP,,ARU,Dario Guarita Arpt,N,,,,,,-21.1413002,-50.42470169,
ARV,Minocqua,US,WI,,ARV,Noble F Lee Memorial Field,N,North America,North America,North America,North America,North America,45.92789841,-89.73090363,
ARW,Arad,RO,,,ARW,Arad Arpt,N,International,EMEA,Atlantic,Europe,EMEA,46.17660141,21.26199913,
ARX,Aracati,BR,,,ARX,Dragao do Mar Airport,N,North America,North America,North America,North America,North America,40.21930556,-74.09083333,
ARY,Ararat,AU,VIC,,ARY,Ararat Arpt,N,International,Pac-North,Australia,Australia,APAC,-37.30939865,142.9889984,
DGD,Dalgaranga,AU,WA,,,,N,International,Pac-North,Australia,Australia,APAC,-27.83027778,117.3163889,
DHD,Durham Downs,AU,QLD,,,,N,,,,,,-27.07500076,141.8999939,
ASB,Ashgabat,TM,,,ASB,Saparmurat Turkmenbashi Intl Arpt,N,International,EMEA,Middle East,Asia,EMEA,37.98680115,58.36100006,
ASD,Andros Town,BS,,,ASD,Andros Town Intl Arpt,N,,,,,,24.69790077,-77.79560089,
ASE,Aspen,US,CO,,ASE,Pitkin County Airport,N,North America,North America,North America,North America,North America,39.22320175,-106.8690033,
ASF,Astrakhan,RU,,,ASF,Astrakhan Arpt,N,International,EMEA,Asia,Europe,Russia,46.28329849,48.00630188,
DNB,Dunbar,AU,QLD,,,,N,,,,,,-16.04999924,142.3999939,
ASH,Nashua,US,NH,,ASH,Boire Field Arpt,N,North America,North America,North America,North America,North America,42.78170013,-71.51480103,
ASI,Ascension Island St Helena,SH,,,ASI,RAF Station Ascension Island,N,International,EMEA,Atlantic,Europe,EMEA,-7.9696,-14.3937,
ASJ,Amami O Shima,JP,,,ASJ,Amami O Shima Arpt,N,International,Pac-North,Asia,Asia,APAC,28.43059921,129.7129974,
ASK,Yamoussouro,CI,,,ASK,Yamoussoukro Arpt,N,,,,,,6.903170109,-5.365580082,
ASL,Marshall,US,TX,,ASL,Harrison County Arpt,N,,,,,,32.52050018,-94.30780029,
ASM,Asmara,ER,,,ASM,Asmara Intl Arpt,N,,,,,,15.29189968,38.91070175,
ASN,Talladega,US,AL,,ASN,Talladega Arpt,N,,,,,,33.56990051,-86.05090332,
ASO,Asosa,ET,,,ASO,Asosa Arpt,N,,,,,,10.01850033,34.5862999,
ASP,Alice Springs,AU,NT,,ASP  XHW,Alice Springs Arpt,N,,,,,,-23.80669975,133.9019928,
DRD,Dorunda,AU,QLD,,,,N,International,Pac-North,Australia,Australia,APAC,-16.5537,141.8238,
ASR,Kayseri,TR,,,ASR,Kayseri Arpt,N,International,EMEA,Middle East,Europe,EMEA,38.770401,35.49539948,
ASS,Arathusa Safari Lodge,ZA,,,ASS,Arathusa Safari Lodge Arpt,N,,,,,,-24.744165,31.522499,
AST,Astoria,US,OR,,AST,Astoria Regional Arpt,N,North America,North America,North America,North America,North America,46.15800095,-123.8789978,
ASU,Asuncion,PY,,,ASU,Salvio Pettirosse Intl,N,,,,,,-25.23999977,-57.52000046,
ASV,Amboseli,KE,,,,Amboseli Arpt,N,,,,,,-2.645050049,37.25310135,
ASW,Aswan,EG,,,ASW,Daraw Arpt,N,International,EMEA,Africa,Africa,EMEA,23.96439934,32.81999969,
DRR,Durrie,AU,QLD,,,,N,International,Pac-North,Australia,Australia,APAC,-25.68499947,140.2279968,
ATA,Anta,PE,,,ATA,German Arias Graziani Arpt,N,,,,,,-9.347439766,-77.5983963,
DYA,Dysart,AU,QLD,,,,N,International,Pac-North,Australia,Australia,APAC,-22.62220001,148.3639984,
ATC,Arthurs Town,BS,,,ATC,Arthurs Town Arpt,N,,,,,,24.6294,-75.673797,
ATD,Atoifi,SB,,,ATD,Uru Harbour Arpt,N,,,,,,-8.87333,161.011002,
ETD,Etadunna,AU,SA,,,,N,International,Pac-North,Australia,Australia,APAC,-28.74080086,138.5890045,
EVH,Evans Head,AU,,,,,N,International,Pac-North,Australia,Australia,APAC,-29.09329987,153.4199982,
ATH,Athens,GR,,,ATH,Eleftherios Venizelos Intl Arpt,N,International,EMEA,Atlantic,Europe,EMEA,37.93640137,23.94449997,
ATI,Artigas,UY,,,ATI,Artigas Arpt,N,,,,,,-30.40069962,-56.50790024,
ATK,Atqasuk,US,AK,,ATK,E Burnell Sr Memorial Arpt,N,North America,North America,North America,North America,North America,70.46730042,-157.4360046,
ATL,Atlanta,US,GA,,ATL  FTY  PDK,Hartsfield Jackson Intl Arpt,N,North America,North America,North America,North America,North America,33.6367,-84.428101,
ATM,Altamira,BR,PA,,ATM,Altamira Arpt,N,,,,,,-3.253910065,-52.25400162,
FIZ,Fitzroy Crossing,AU,WA,,,,N,,,,,,-18.18190002,125.5589981,
ATO,Athens,US,OH,,ATO,Ohio University Arpt,N,North America,North America,North America,North America,North America,39.21099854,-82.23139954,
ATP,Aitape,PG,,,ATP  TAJ,Aitape Airport,N,,,,,,-3.143611111,142.3468056,
ATQ,Amritsar,IN,,,ATQ,Raja Sansi Arpt,N,,,,,,31.70960045,74.79730225,
ATR,Atar,MR,,,ATR,Mouakchott Arpt,N,,,,,,20.5067997,-13.04319954,
FLS,Flinder Island,AU,TAS,,,,N,,,,,,-40.09170151,147.9929962,
FRB,Forbes,AU,NSW,,,,N,International,Pac-North,Australia,Australia,APAC,-33.363602,147.934998,
ATU,Attu Island,US,AK,,ATU,Casco Cove Cgs Arpt,N,North America,North America,North America,North America,North America,52.82839966,173.1799927,
ATW,Appleton,US,WI,,ATW,Appleton International Arpt,N,North America,North America,North America,North America,North America,44.2580986,-88.51909637,
ATY,Watertown,US,SD,,ATY,Watertown Regional Arpt,N,North America,North America,North America,North America,North America,44.91400146,-97.15470123,
ATZ,Assiut,EG,,,ATZ,Assiut Airport,N,International,EMEA,Africa,Africa,EMEA,27.04649925,31.01199913,
AUA,Aruba,AW,,,AUA,Reina Beatrix Arpt,N,,,,,,12.5014,-70.015198,
AUC,Arauca,CO,,,AUC,Santiago Perez Quiroz Arpt,N,,,,,,7.06888,-70.7369,
AUF,Auxerre,FR,,,AUF,Branches airport,N,,,,,,47.85020065,3.49710989,
AUG,Augusta,US,ME,,AUG,Maine State Arpt,N,North America,North America,North America,North America,North America,44.3205986,-69.79730225,
AUH,Abu Dhabi,AE,,,AUH  AZI  DHF  XBW  ZVJ,Dhabi Intl Arpt,N,,,,,,24.43300056,54.65110016,
AUI,Aua Island,PG,,,AUI,Aua Island Arpt,N,International,Pac-South,Asia,Asia,APAC,-1.460555556,143.0647222,
GEE,George Town,AU,TAS,,,,N,International,Pac-North,Australia,Australia,APAC,-41.08000183,146.8399963,
GKL,Great Keppel Is,AU,QLD,,,,N,,,,,,-23.18330002,150.9420013,
AUM,Austin,US,MN,,AUM,Austin Airport,N,,,,,,43.66500092,-92.93340302,
AUN,AUBURN,US,CA,,AUN,Auburn Arpt,N,,,,,,38.95479965,-121.0820007,
AUO,Auburn,US,AL,,AUO,Auburn Opelika,N,North America,North America,North America,North America,North America,32.61510086,-85.43399811,
GLG,Glengyle,AU,QLD,,,,N,International,Pac-North,Australia,Australia,APAC,-24.80830002,139.6000061,
AUQ,Atuona,PF,,,AUQ,Atuona Arpt,N,,,,,,-9.768790245,-139.0110016,
AUR,Aurillac,FR,,,AUR,Tronquieres Arpt,N,International,EMEA,Atlantic,Europe,EMEA,44.89139938,2.421940088,
AUS,Austin,US,TX,,AUS  MMR,Bergstrom Intl Arpt,N,North America,North America,North America,North America,North America,30.29872235,-97.69978523,
GPN,Garden Point,AU,NT,,,this is an airport - fill in name,N,,,,,,-11.40250015,130.4219971,
AUU,Aurukun Mission,AU,QLD,,AUU,Aurukin Arpt,N,International,Pac-North,Australia,Australia,APAC,-13.354067,141.72065,
AUW,Wausau,US,WI,,AUW  CWA,Wausau Downtown Arpt,N,North America,North America,North America,North America,North America,44.92620087,-89.62660217,
AUX,Araguaina,BR,TO,,AUX,Araguaina Arpt,N,International,Latin America,South America,South America,South America,-7.22787,-48.240501,
AUY,Aneityum,VU,,,AUY,Anatom Island,N,,,,,,-20.24920082,169.7709961,
AUZ,Aurora,US,IL,,AUZ,Aurora Municipal Arpt,N,,,,,,41.77190018,-88.47570038,
AVA,Anshun,CN,,,AVA,Huang Guo Sho Arpt,N,,,,,,26.26055556,105.8733333,
AVB,Aviano,IT,,,AVB,Aviano Airbase,N,,,,,,46.031898,12.596503,
AVI,Ciego De Avila,CU,,,AVI,Maximo Gomez Arpt,N,,,,,,22.02709961,-78.78959656,
AVL,Asheville,US,NC,,AVL,Asheville Regional Arpt,N,North America,North America,North America,North America,North America,35.43619919,-82.54180145,
AVN,Avignon,FR,,,AVN  XZN,Avignon Caumont Arpt,N,International,EMEA,Atlantic,Europe,EMEA,43.90729904,4.901830196,
AVP,Scranton,US,PA,,AVP  WBW,Wilkes Barre Scranton Intl Arpt,N,North America,North America,North America,North America,North America,41.33850098,-75.7233963,
AVR,Alverca,PT,,,AVR,Alverca Aprt,N,,,,,,38.883301,-9.0301,
AVS,Avila,ES,,,AVJ  AVS,Avila Rail Station,Y,,,,,,,,
GTT,Georgetown,AU,QLD,,,,N,,,,,,-18.30500031,143.5299988,
GUL,Goulburn,AU,NSW,,,,N,International,Pac-North,Australia,Australia,APAC,-34.81029892,149.7259979,
AWA,Awasa,ET,,,AWA,Awasa Airport,N,,,,,,7.066999912,38.5,
AWB,AWABA,PG,,,AWB,Awaba Airport,N,,,,,,-8.006110191,142.7483521,
HLT,Hamilton,AU,VIC,,,,N,,,,,,-37.64889908,142.0650024,
HNK,Hinchinbrooke Is,AU,QLD,,,,N,,,,,,,,
AWM,West Memphis,US,AR,,AWM,West Memphis Municipal Arpt,N,,,,,,35.13510132,-90.23439789,
HSM,Horsham,AU,VIC,,,,N,International,Pac-North,Australia,Australia,APAC,-36.66970062,142.1730042,
HXX,Hay AU,AU,NSW,,,,N,,,,,,-34.53139877,144.8300018,
AWZ,Ahwaz,IR,,,AWZ,Ahwaz Airport,N,,,,,,31.33740044,48.76200104,
AXA,Anguilla,AI,,,AXA,Clayton J Lloyd International,N,,,,,,18.2048,-63.055099,
AXD,Alexandroupolis,GR,,,AXD,Dhmokritos Arpt,N,International,EMEA,Atlantic,Europe,EMEA,40.85589981,25.95630074,
IKP,Inkerman,AU,QLD,,,,N,,,,,,-16.27499962,141.4420013,
AXJ,Amakusa,JP,,,AXJ,Amakusa Arpt,N,,,,,,32.482498,130.158997,
INM,Innamincka,AU,SA,,,,N,,,,,,-27.70000076,140.7330017,
KAX,Kalbarri,AU,WA,,,,N,International,Pac-North,Australia,Australia,APAC,-27.692813,114.259169,
AXM,Armenia,CO,,,AXM,El Eden International,N,,,,,,4.45278,-75.7664,
AXN,Alexandria,US,MN,,AXN,Alexandria Airport,N,North America,North America,North America,North America,North America,45.86629868,-95.3946991,
KBY,Streaky Bay,AU,SA,,,,N,International,Pac-North,Australia,Australia,APAC,-32.83580017,134.2929993,
KGY,Kingaroy,AU,QLD,,,,N,,,,,,-26.5807991,151.8410034,
AXT,Akita,JP,,,AXT,Akita Airport,N,International,Pac-North,Asia,Asia,APAC,39.61560059,140.2189941,
AXU,Axum,ET,,,AXU,Axum Airport,N,,,,,,14.14680004,38.77280045,
AXV,Wapakoneta,US,OH,,AXV,Neil Armstrong Arpt,N,,,,,,40.49340057,-84.29889679,
AXX,Angel Fire,US,NM,,AXX,Angel Fire Arpt,N,,,,,,36.42200089,-105.2900009,
AYN,Anyang,CN,,,AYN,Anyang Airport,N,,,,,,36.1339,114.344002,
AYP,Ayacucho,PE,,,AYP,Alfredo M Duarte Arpt,N,,,,,,-13.15480042,-74.20439911,
AYQ,Ayers Rock,AU,NT,,AYQ,Connellan Arpt,N,,,,,,-25.1861,130.975998,
AYR,Ayr Au,AU,QLD,,AYR,Ayr Arpt,N,International,Pac-North,Australia,Australia,APAC,-19.58440018,147.3289948,
AYS,Waycross,US,GA,,AYS,Ware County Arpt,N,North America,North America,North America,North America,North America,31.24909973,-82.39550018,
AYT,Antalya,TR,,,AYT,Antalya Airport,N,,,,,,36.898701,30.800501,
AZA,Phoenix City,US,AZ,,,Phoenix Mesa Gateway Airport,N,,,,,,33.30780029,-111.6549988,
KOH,Koolatah,AU,QLD,,,,N,,,,,,-15.88860035,142.4389954,
AZD,Yazd,IR,,,AZD,Yazd Arpt,N,,,,,,31.9048996,54.2765007,
AZG,Apatzingan,MX,,,AZG,Apatzingan Arpt,N,International,Latin America,Mexico,North America,Mexico,19.093399,-102.393997,
AZN,Andizhan,UZ,,,AZN,Andizhan Airport,N,International,Pac-North,Asia,Asia,APAC,40.72769928,72.29399872,
AZO,Kalamazoo,US,MI,,AZO,Kalamazoo Battle Creak Intl Arpt,N,North America,North America,North America,North America,North America,42.23490143,-85.55210114,
KRA,Kerang,AU,VIC,,,,N,,,,,,-35.75139999,143.9389954,
AZS,Samana,DO,,,AZS,El Catey International,N,International,Latin America,Caribbean,North America,Latin America,19.2670002,-69.74199677,
KUG,Kubin Island,AU,QLD,,,,N,International,Pac-North,Australia,Australia,APAC,-10.22500038,142.2180023,
BAG,Baguio,PH,,,BAG,Loakan Arpt,N,,,,,,16.37509918,120.6200027,
BAH,Bahrain,BH,,,BAH,Bahrain Intl Arpt,N,International,EMEA,Middle East,Asia,EMEA,26.27079964,50.63359833,
BAI,Buenos Aires,CR,,,BAI,Buenos Aires Arpt,N,,,,,,9.163949,-83.330171,
KWM,Kowanyama,AU,QLD,,,,N,,,,,,-15.48560047,141.7510071,
BAK,Baku,AZ,,,GYD  ZXT,Baku Airport,N,,,,,,,,
BAL,Batman,TR,,,BAL,Batman Arpt,N,International,EMEA,Middle East,Europe,EMEA,37.92900085,41.11660004,
LEL,Lake Evella,AU,NT,,,,N,International,Pac-North,Australia,Australia,APAC,-12.49890041,135.8059998,
LGH,Leigh Creek,AU,SA,,,,N,,,,,,-30.59830093,138.4259949,
BAQ,Barranquilla,CO,,,BAQ,Ernesto Cortissoz Intl,N,,,,,,10.8896,-74.7808,
BAS,Balalae,SB,,,BAS,Balalae Arpt,N,,,,,,-6.990745,155.886656,
BAT,Barretos,BR,SP,,BAT,Chafei Amsei Arpt,N,International,Latin America,South America,South America,South America,-20.58449936,-48.59410095,
BAV,Baotou,CN,,,BAV,Baotou Arpt,N,,,,,,40.56000137,109.9970016,
BAX,Barnaul,RU,,,BAX,Barnaul Arpt,N,International,EMEA,Asia,Europe,Russia,53.36380005,83.53849792,
BAY,Baia Mare,RO,,,BAO  BAY,Baia Mare Arpt,N,International,EMEA,Atlantic,Europe,EMEA,47.65840149,23.46999931,
BAZ,Barbelos,BR,AM,,BAZ,Barbelos  Airport,N,International,Latin America,South America,South America,South America,-0.981292,-62.919601,
BBA,Balmaceda,CL,,,BBA,Balmaceda Arpt,N,,,,,,-45.91609955,-71.6894989,
MBB,Marble Bar,AU,WA,,,,N,,,,,,-21.16329956,119.8330002,
MIN,Minnipa,AU,SA,,,,N,,,,,,-32.84329987,135.1450043,
MNE,Mungeranie,AU,SA,,,,N,International,Pac-North,Australia,Australia,APAC,-28.00919914,138.6569977,
BBH,Barth,DE,,,BBH,Barth Arpt,N,,,,,,54.338253,12.710515,
BBI,Bhubaneswar,IN,,,BBI,Biju Patnaik Arpt,N,,,,,,20.24440002,85.81780243,
BBJ,Bitburg,DE,,,BBJ,Bitburg Air Base,N,,,,,,49.945278,6.565,
BBK,Kasane,BW,,,BBK,Kasane Arpt,N,,,,,,-17.83289909,25.16239929,
BBM,Battambang,KH,,,BBM,Battambang Airport,N,,,,,,13.09560013,103.223999,
BBN,Bario,MY,,,BBN,Bario Arpt,N,,,,,,3.733890057,115.4789963,
BBO,Berbera,SO,,,BBO,Berbera Arpt,N,,,,,,10.38920021,44.94110107,
MOO,Moomba,AU,SA,,,,N,,,,,,-28.09939957,140.1970062,
MRG,Mareeba,AU,,,,,N,International,Pac-North,Australia,Australia,APAC,-17.06920052,145.4190063,
BBR,Basse Terre,GP,,,BBR,Baillif Arpt,N,,,,,,16.01329994,-61.74219894,
BBW,Broken Bow,US,NE,,BBW,Broken Bow Municipal,N,,,,,,41.43650055,-99.64219666,
MUP,Mulga Park,AU,NT,,,,N,International,Pac-North,Australia,Australia,APAC,-25.86000061,131.6499939,
MVK,Mulka,AU,SA,,,,N,International,Pac-North,Australia,Australia,APAC,-28.3477993,138.6499939,
BCA,Baracoa,CU,,,BCA,Gustavo Rizo,N,,,,,,20.36529922,-74.5062027,
BCB,Blacksburg,US,VA,,BCB,Virginia Tech Arpt,N,,,,,,37.20759964,-80.40779877,
BCC,Bear Creek,US,AK,,BCC,Bear Creek 3 Arpt,N,,,,,,63.57331604,-156.1494541,
BCD,Bacolod,PH,,,BCD,Bacolod Arpt,N,,,,,,10.7764,123.014999,
BCE,Bryce,US,UT,,BCE,Bryce Arpt,N,,,,,,37.70640183,-112.1449966,
BCH,Baucau,TL,,,BCH,English Madeira Arpt,N,,,,,,-8.489029884,126.401001,
BCI,Barcaldine,AU,QLD,,BCI,Barcaldine Arpt,N,,,,,,-23.56529999,145.3070068,
MWT,Moolawatana,AU,SA,,,,N,International,Pac-North,Australia,Australia,APAC,-29.9069,139.765,
BCM,Bacau,RO,,,BCM,Bacau Arpt,N,International,EMEA,Atlantic,Europe,EMEA,46.52190018,26.9102993,
BCN,Barcelona,ES,,,BCN  XJB  YJB  YJD,Barcelona Arpt,N,International,EMEA,Atlantic,Europe,EMEA,41.2971,2.07846,
BCR,Boca Do Acre,BR,AM,,BCR,Novo Campo Arpt,N,International,Latin America,South America,South America,South America,-8.83456,-67.312401,
BCT,Boca Raton,US,FL,MIA,BCT,Boca Raton Public Arpt,N,North America,North America,North America,North America,North America,26.37849998,-80.10769653,
BCV,Belmopan,BZ,,,BCV,Hector Silva Airport,N,,,,,,17.269603,-88.776496,
BDA,Bermuda,BM,,,BDA,LF Wade International,N,,,,,,32.36399841,-64.67870331,
BDB,Bundaberg,AU,QLD,,BDB,Bundaberg Arpt,N,,,,,,-24.90390015,152.3190002,
BDD,Badu Island,AU,QLD,,BDD,Badu Island Arpt,N,International,Pac-North,Australia,Australia,APAC,-10.14999962,142.1734,
MWY,Miranda Downs,AU,QLD,,,,N,,,,,,-17.328899,141.886002,
MYI,Murray Island,AU,QLD,,,,N,International,Pac-North,Australia,Australia,APAC,-9.916669846,144.0549927,
BDJ,Banjarmasin,ID,,,BDJ,Sjamsudin Noor Arpt,N,,,,,,-3.442359924,114.7630005,
NBR,Nambour,AU,QLD,,,,N,International,Pac-North,Australia,Australia,APAC,-26.63333333,152.95,
BDO,Bandung,ID,,,BDO,Husein Sastranegara Arpt,N,,,,,,-6.900629997,107.5759964,
BDQ,Vadodara,IN,,,BDQ,Vadodara Arpt,N,,,,,,22.336201,73.226303,
BDR,Bridgeport,US,CT,,BDR,Sikorsky Memorial Arpt,N,North America,North America,North America,North America,North America,41.16350174,-73.12619781,
BDS,Brindisi,IT,,,BDS,Papola Casale Arpt,N,International,EMEA,Atlantic,Europe,EMEA,40.6576,17.947001,
NLF,Darnley Island,AU,QLD,,,,N,International,Pac-North,Australia,Australia,APAC,-9.583330154,143.7669983,
BDU,Bardufoss,NO,,,BDU,Bardufoss Arpt,N,International,EMEA,Atlantic,Europe,EMEA,69.05580139,18.54039955,
NLL,Nullagine,AU,WA,,,,N,,,,,,-21.91329956,120.197998,
BEB,Benbecula,GB,,,BEB,Benbecula Arpt,N,,,,,,57.48109818,-7.362780094,
BED,Bedford,US,MA,,BED,Laurence G Hanscom Field,N,North America,North America,North America,North America,North America,42.47000122,-71.28900146,
BEG,Belgrade,RS,,,BEG  BJY,Nikola Tesla Airport,N,,,,,,44.81840134,20.3090992,
BEH,Benton Harbor,US,MI,,BEH,Ross Field,N,North America,North America,North America,North America,North America,42.12860107,-86.42849731,
NSV,Noosaville,AU,QLD,,,,N,International,Pac-North,Australia,Australia,APAC,-26.42329979,153.0630035,
BEJ,Tanjung Redeb,ID,,,BEJ,Kalimarau Arpt,N,,,,,,2.1555,117.431999,
BEK,Rae Bareli,IN,,,BEK,Sri Sathya Sai Airport,N,International,Pac-North,Asia,Asia,APAC,28.42210007,79.45079803,
BEL,Belem,BR,PA,,BEL,Val De Cans Intl Arpt,N,,,,,,-1.37925005,-48.47629929,
BEM,Beni Mellal,MA,,,BEM,Beni Mellal National Arpt,N,,,,,,32.401895,-6.315905,
BEN,Benghazi,LY,,,BEN,Benina Intl Arpt,N,,,,,,32.09680176,20.26950073,
BEP,Bellary,IN,,,BEP,Bellary Airport,N,International,Pac-North,Asia,Asia,APAC,15.16279984,76.88279724,
BEQ,Bury St Edmunds,GB,,,BEQ,Honington Arpt,N,,,,,,52.34260178,0.772939026,
BER,Berlin,DE,,,BER  QPP  QWB  QWC  SXF  THF  TXL,Berlin Brandenburg Airport,N,International,EMEA,Atlantic,Europe,EMEA,52.35138889,13.49388889,
BES,Brest,FR,,,BES,Guipavas Arpt,N,International,EMEA,Atlantic,Europe,EMEA,48.44789886,-4.418540001,
BET,Bethel,US,AK,,BET  JBT,Bethel Arpt,N,North America,North America,North America,North America,North America,60.77980042,-161.8379974,
BEU,Bedourie,AU,QLD,,BEU,Bedourie Arpt,N,International,Pac-North,Australia,Australia,APAC,-24.34609985,139.4600067,
ODL,Cordillo Downs,AU,SA,,,,N,International,Pac-North,Australia,Australia,APAC,-26.74530029,140.6380005,
BEW,Beira,MZ,,,BEW,Beira Arpt,N,,,,,,-19.79640007,34.9076004,
BEY,Beirut,LB,,,BEY,Beirut Intl Arpt,N,,,,,,33.82089996,35.48839951,
BEZ,Beru,KI,,,BEZ,Beru Arpt,N,,,,,,-1.354719996,176.0070038,
BFB,Blue Fox Bay,US,AK,,BFB,Blue Fox Bay Arpt,N,,,,,,,,
BFC,Bloomfield River,AU,,,BFC,Bloomfield River Arpt,N,International,Pac-North,Australia,Australia,APAC,-15.87360001,145.3300018,
BFD,Bradford,US,PA,,BFD,Bradford Regional Arpt,N,North America,North America,North America,North America,North America,41.80310059,-78.64009857,
BFE,Bielefeld,DE,,,BFE,Bielefeld Arpt,N,,,,,,51.964722,8.544444,
BFF,Scottsbluff,US,NE,,BFF,Scottsbluff Municipal,N,North America,North America,North America,North America,North America,41.87400055,-103.5960007,
BFG,Bullfrog Basin,US,UT,,BFG,Bullfrog Basin Arpt,N,North America,North America,North America,North America,North America,37.54579926,-110.7129974,
BFJ,Bijie,CN,,,BFJ,Bijie Airport,N,,,,,,27.267066,105.472097,
BFL,Bakersfield,US,CA,,BFL,Meadows Field,N,North America,North America,North America,North America,North America,35.43360138,-119.0569992,
BFN,Bloemfontein,ZA,,,BFN,Bloemfontein International,N,,,,,,-29.09269905,26.30240059,
BFO,Chiredzi,ZW,,,BFO,Buffalo Range Arpt,N,,,,,,-21.008101,31.5786,
BFP,Beaver Falls,US,PA,,BFP,Beaver County Arpt,N,,,,,,40.77249908,-80.3914032,
BFQ,Bahia Pina,PA,,,BFQ,Bahia Pina Airport,N,North America,North America,North America,North America,North America,7.583000183,-78.19999695,
BFR,Bedford,US,IN,,BFR,Virgil I Grissom Municipal,N,North America,North America,North America,North America,North America,38.84000015,-86.44539642,
BFS,Belfast,GB,,,BFS  BHD,Belfast Intl Arpt,N,International,EMEA,Atlantic,Europe,EMEA,54.65750122,-6.215829849,
BFT,Beaufort,US,SC,,BFT,Beaufort County Arpt,N,North America,North America,North America,North America,North America,32.41220093,-80.63439941,
BFV,Buri Ram,TH,,,BFV,Buriram Airport,N,International,Pac-North,Asia,Asia,APAC,15.22949982,103.2529984,
OKR,Yorke Island,AU,QLD,,,,N,International,Pac-North,Australia,Australia,APAC,-9.752801,143.405673,
BGA,Bucaramanga,CO,,,BGA,Palonegro International,N,,,,,,7.1265,-73.1848,
PDE,Pandie Pandie,AU,QLD,,,,N,International,Pac-North,Australia,Australia,APAC,-26.11669922,139.3999939,
PEA,Penneshaw,AU,SA,,,,N,,,,,,-35.75584629,137.9628754,
BGF,Bangui,CF,,,BGF,Bangui Airport,N,,,,,,4.398479939,18.51880074,
BGG,Bingol,TR,,,BGG,Bingol Arpt,N,,,,,,38.85926056,40.59596252,
BGI,Bridgetown,BB,,,BGI,Grantley Adams Intl Arpt,N,,,,,,13.07460022,-59.49250031,
QBW,Batesman Bay,AU,NSW,,,,N,,,,,,,,
QDN,Eden,AU,NSW,,,,N,,,,,,,,
BGM,Binghamton,US,NY,,BGM,Greater Binghamton Arpt,N,North America,North America,North America,North America,North America,42.20869827,-75.97979736,
BGN,Belaya Gora,RU,,,BGN,Belaya Gora Arpt,N,International,EMEA,Atlantic,Europe,EMEA,68.556602,146.231506,
BGO,Bergen,NO,,,BGO  QFV  XKN  XVK,Flesland Airport,N,International,EMEA,Atlantic,Europe,EMEA,60.29339981,5.218140125,
BGQ,Big Lake,US,AK,,BGQ,Big Lake Arpt,N,,,,,,61.53609848,-149.8139954,
BGR,Bangor,US,ME,,BGR,Bangor Intl Arpt,N,North America,North America,North America,North America,North America,44.80739975,-68.82810211,
BGT,Bagdad,US,AZ,,BGT,Bagdad Arpt,N,,,,,,34.59590149,-113.1699982,
BGV,Bento Goncalves,BR,RS,,BGV,Bento Goncalves Arpt,N,International,Latin America,South America,South America,South America,-29.1483326,-51.5363884,
BGW,Baghdad,IQ,,,BGW,Baghdad International Arpt,N,,,,,,33.26250076,44.23460007,
QRM,Narromine,AU,NSW,,,,N,,,,,,-32.21469879,148.2250061,
BGY,Bergamo,IT,,MIL,BGY,Orio Al Serio Arpt,N,International,EMEA,Atlantic,Europe,EMEA,45.673901,9.70417,
QTH,Thredbo,AU,NSW,,,,N,,,,,,,,
BHB,Bar Harbor,US,ME,,BHB,Hancock County,N,North America,North America,North America,North America,North America,44.45000076,-68.3615036,
QTO,Skitube,AU,NSW,,,,N,,,,,,,,
BHE,Blenheim,NZ,,,BHE,Woodbourne Arpt,N,,,,,,-41.5182991,173.8699951,
BHH,Bisha,SA,,,BHH,Bisha Airport,N,,,,,,19.9843998,42.6208992,
BHI,Bahia Blanca,AR,,,BHI,Commandante Espora Arpt,N,,,,,,-38.725,-62.1693,
BHJ,Bhuj,IN,,,BHJ,Rudra Mata Arpt,N,,,,,,23.28779984,69.67019653,
BHK,Bukhara,UZ,,,BHK,Bukhara Arpt,N,,,,,,39.77500153,64.48329926,
BHL,Bahia De Los Angeles,MX,,,BHL,Bahia De Los Angeles Arpt,N,International,Latin America,Mexico,North America,Mexico,28.9786,-113.560997,
BHM,Birmingham,US,AL,,BHM,Shuttlesworth Intl Arpt,N,North America,North America,North America,North America,North America,33.56290054,-86.75350189,
QWL,Crackenback Village,AU,NSW,,,,N,,,,,,,,
BHO,Bhopal,IN,,,BHO,Raja Bhoj Arpt,N,,,,,,23.28750038,77.33740234,
BHQ,Broken Hill,AU,NSW,,BHQ,Broken Hill Arpt,N,,,,,,-32.00139999,141.4720001,
BHR,Bharatpur,NP,,,BHR,Bharatpur Arpt,N,,,,,,27.678101,84.429398,
BHS,Bathurst,AU,NSW,,BHS,Raglan Airport,N,,,,,,-33.40940094,149.6519928,
BHU,Bhavnagar,IN,,,BHU,Bhavnagar Arpt,N,,,,,,21.75219917,72.18520355,
BHV,Bahawalpur,PK,,,BHV,Bahawalpur Arpt,N,International,EMEA,Middle East,Asia,EMEA,29.34810066,71.71800232,
BHX,Birmingham,GB,,,BHX  QQN  ZBC,Birmingham Intl Arpt,N,International,EMEA,Atlantic,Europe,EMEA,52.45389938,-1.748029947,
BHY,Beihai,CN,,,BHY,Beihai Airport,N,,,,,,21.5394,109.293999,
QYN,Byron Bay,AU,NSW,,,,N,,,,,,,,
BIA,Bastia,FR,,,BIA,Poretta Airport,N,International,EMEA,Atlantic,Europe,EMEA,42.55270004,9.483730316,
BID,Block Island,US,RI,,BID,Block Island Municipal,N,North America,North America,North America,North America,North America,41.16809845,-71.57779694,
BIG,Big Delta,US,AK,,BIG,Allen AAF Arpt,N,North America,North America,North America,North America,North America,63.99449921,-145.7220001,
BIH,Bishop,US,CA,,BIH,Bishop Airport,N,North America,North America,North America,North America,North America,37.37310028,-118.3639984,
BII,Bikini Atoll,MH,,,BII,Enyu Airfield,N,,,,,,11.5225,165.565002,
BIK,Biak,ID,,,BIK,Mokmer Arpt,N,,,,,,-1.190019965,136.1080017,
BIL,Billings,US,MT,,BIL,Logan Field,N,North America,North America,North America,North America,North America,45.80770111,-108.5429993,
BIM,Bimini,BS,,,BIM  NSB,South Bimini Airport,N,,,,,,25.69989967,-79.26470184,
BIO,Bilbao,ES,,,BIO  YJI,Bilbao Arpt,N,International,EMEA,Atlantic,Europe,EMEA,43.30110168,-2.910609961,
BIQ,Biarritz,FR,,,BIQ,Pays Basque,N,International,EMEA,Atlantic,Europe,EMEA,43.4683333,-1.5311111,
RAM,Ramingining,AU,NT,,,,N,International,Pac-North,Australia,Australia,APAC,-12.35639954,134.897995,
BIS,Bismarck,US,ND,,BIS,Bismarck Municipal Arpt,N,North America,North America,North America,North America,North America,46.77270126,-100.7460022,
BIU,Bildudalur,IS,,,BIU,Bildudalur Arpt,N,,,,,,65.64129639,-23.5461998,
ROH,Robinhood,AU,QLD,,,,N,International,Pac-North,Australia,Australia,APAC,-18.84499931,143.7100067,
BIY,Bisho,ZA,,,BIY,Bisho Arpt,N,,,,,,-32.89709854,27.27910042,
BJA,Bejaia,DZ,,,BJA,Bejaia Arpt,N,,,,,,36.7120018,5.069920063,
BJC,Broomfield,US,CO,,BJC,Denver Rocky Mountain Metrop Arpt,N,,,,,,39.90879822,-105.1169968,
RSB,Roseberth,AU,QLD,,,,N,International,Pac-North,Australia,Australia,APAC,-25.83329964,139.6499939,
BJF,Batsfjord,NO,,,BJF,Batsfjord Arpt,N,,,,,,70.60050201,29.69140053,
RTP,Rutland Plains,AU,QLD,,,,N,,,,,,-15.64330006,141.8430023,
BJI,Bemidji,US,MN,,BJI,Bemidji Regional Arpt,N,North America,North America,North America,North America,North America,47.50939941,-94.93370056,
BJJ,Wooster,US,OH,,BJJ,Wayne County Airpt,N,,,,,,40.87480164,-81.88829803,
RTY,Merty,AU,SA,,,,N,International,Pac-North,Australia,Australia,APAC,-28.58329964,140.3170013,
BJL,Banjul,GM,,,BJL,Yundum Intl Arpt,N,,,,,,13.3380003,-16.6522007,
BJM,Bujumbura,BI,,,BJM,Bujumbura Intl Arpt,N,,,,,,-3.324019909,29.31850052,
SBR,Sabai Island,AU,QLD,,,,N,International,Pac-North,Australia,Australia,APAC,-9.378330231,142.625,
BJR,Bahar Dar,ET,,,BJR,Bahar Dar Arpt,N,,,,,,11.60809994,37.32160187,
SFP,Surfers Paradise,AU,QLD,,,,N,International,Pac-North,Australia,Australia,APAC,-28,153.4333333,
BJT,Bentota,LK,,,BJT,Bentota River Airport,N,,,,,,6.431,79.996,
BJV,Bodrum,TR,,,BXN,Milas Arpt,N,,,,,,37.25059891,27.66430092,
SHQ,Southport,AU,QLD,,,,N,International,Pac-North,Australia,Australia,APAC,-27.922054,153.372143,
BJX,Leon,MX,,,BJX,Del Bajio International,N,International,Latin America,Mexico,North America,Mexico,20.9935,-101.481003,
BJZ,Badajoz,ES,,,BJZ  BQZ,Talaveral La Real Arpt,N,International,EMEA,Atlantic,Europe,EMEA,38.8913002,-6.82133007,
BKB,Bikaner,IN,,,,Bikaner Arpt,N,International,Pac-North,Asia,Asia,APAC,28.07060051,73.2071991,
SIO,Smithton,AU,TAS,,,,N,,,,,,-40.83499908,145.0839996,
BKE,Baker,US,OR,,BKE,Baker City Municipal Arpt,N,North America,North America,North America,North America,North America,44.83729935,-117.8089981,
BKF,Katmai National Park,US,AK,,BKF,Lake Brooks SPB,N,,,,,,58.55479813,-155.7769928,
BKG,Branson,US,MO,,BKG,Branson Regional Arpt,N,North America,North America,North America,North America,North America,36.532082,-93.200544,
BKI,Kota Kinabalu,MY,,,BKI,Kota Kinabalu International Airport,N,,,,,,5.937210083,116.0510025,
BKK,Bangkok,TH,,,BKK  DMK,Suvarnabhumi Intl Arpt,N,,,,,,13.68109989,100.7470016,
BKM,Bakalalan,MY,,,BKM,Bakalalan Arpt,N,,,,,,3.973999977,115.6179962,
BKO,Bamako,ML,,,BKO,Senou Airport,N,,,,,,12.53349972,-7.949940205,
BKQ,Blackall,AU,QLD,,BKQ,Blackall Arpt,N,,,,,,-24.42779922,145.4290009,
BKS,Bengkulu,ID,,,BKS,Padangkemiling Arpt,N,,,,,,-3.8637,102.338997,
SNB,Snake Bay,AU,NT,,,,N,,,,,,-11.42280006,130.654007,
BKV,Damao Banner,CN,,,BKV,Bailing Airport,N,,,,,,,,
BKW,Beckley,US,WV,,BKW,Raleigh Cty Memorial,N,North America,North America,North America,North America,North America,37.78730011,-81.12419891,
BKX,Brookings,US,SD,,BKX,Brookings Municipal,N,North America,North America,North America,North America,North America,44.304798,-96.816902,
SQC,Southern Cross,AU,WA,,,,N,,,,,,-31.23999977,119.3600006,
BKZ,Bukoba,TZ,,,BKZ,Bukoba Arpt,N,,,,,,-1.332,31.8212,
BLA,Barcelona,VE,,,BLA,Gen J A Anzoategui Arpt,N,,,,,,10.111111,-64.692222,
BLB,Balboa,PA,,,BLB,Panama Pacifico Airport,N,,,,,,8.91479,-79.599602,
STH,Strathmore,AU,,,,,N,,,,,,-17.85000038,142.5670013,
BLE,Borlange,SE,,,BLE  XYB,Dala Airport,N,International,EMEA,Atlantic,Europe,EMEA,60.42200089,15.51519966,
BLF,Bluefield,US,WV,,BLF,Mercer County,N,North America,North America,North America,North America,North America,37.29579926,-81.20770264,
BLG,Belaga,MY,,,BLG,Belaga Arpt,N,,,,,,2.650000095,113.7669983,
BLH,Blythe,US,CA,,BLH,Blythe Airport,N,North America,North America,North America,North America,North America,33.61920166,-114.7170029,
BLI,Bellingham,US,WA,,BLI,Bellingham Intl Arpt,N,North America,North America,North America,North America,North America,48.7928009,-122.538002,
BLJ,Batna,DZ,,,BLJ,Batna Arpt,N,International,EMEA,Africa,Africa,EMEA,35.7521019,6.308589935,
BLK,Blackpool,GB,,,BLK  XQL,Blackpool Airport,N,International,EMEA,Atlantic,Europe,EMEA,53.77170181,-3.028609991,
BLL,Billund,DK,,,BLL,Billund Airport,N,International,EMEA,Atlantic,Europe,EMEA,55.74029922,9.151780128,
BLM,Belmar,US,NJ,,BLM,Monmouth Executive Arpt,N,,,,,,40.18690109,-74.12490082,
SWC,Stawell,AU,VIC,,,,N,International,Pac-North,Australia,Australia,APAC,-37.07170105,142.7409973,
BLQ,Bologna,IT,,,BLQ  IBT,Guglielmo Marconi,N,International,EMEA,Atlantic,Europe,EMEA,44.5354,11.2887,
BLR,Bengaluru,IN,,,BLR,Kempegowda Intl Arpt,N,,,,,,13.1979,77.706299,
BLT,Blackwater,AU,QLD,,BLT,Blackwater Arpt,N,,,,,,-23.60309982,148.8070068,
BLU,Blue Canyon,US,CA,,BLU,Blue Canyon Arpt,N,,,,,,39.27500153,-120.7099991,
BLV,Belleville,US,IL,,BLV,Mid America St Louis Arpt,N,,,,,,38.5452,-89.835197,
BLW,Beletwene,SO,,,BLW,Beletwene Airport,N,,,,,,4.766976,45.2388,
BLX,Belluno,IT,,,BLX,Belluno Arpt,N,,,,,,46.166549,12.250389,
BLZ,Blantyre,MW,,,BLZ,Chileka Airport,N,,,,,,-15.67910004,34.97399902,
TAN,Tangalooma,AU,QLD,,,,N,International,Pac-North,Australia,Australia,APAC,-27.12999916,153.3630066,
TEF,Telfer,AU,WA,,,,N,International,Pac-North,Australia,Australia,APAC,-21.71500015,122.2289963,
TEM,Temora,AU,NSW,,,,N,,,,,,-34.42139816,147.5119934,
BME,Broome,AU,WA,,BME,Broome Airport,N,,,,,,-17.94470024,122.2320023,
BMG,Bloomington,US,IN,,BMG,Monroe Cty Arpt Indiana,N,North America,North America,North America,North America,North America,39.14599991,-86.61669922,
TUM,Tumut,AU,NSW,,,,N,,,,,,-35.26279831,148.2409973,
BMI,Bloomington,US,IL,,BMI,Central Illinois Rgnl Arpt,N,North America,North America,North America,North America,North America,40.47710037,-88.91590118,
UBB,Mabuiag Island,AU,QLD,,,,N,International,Pac-North,Australia,Australia,APAC,-9.949999809,142.1829987,
BML,Berlin,US,NH,,BML,Berlin Regional,N,North America,North America,North America,North America,North America,44.57540131,-71.17590332,
UMR,Woomera,AU,SA,,,,N,,,,,,-31.14419937,136.8170013,
BMO,Bhamo,MM,,,BMO,Bhamo Arpt,N,,,,,,24.2689991,97.24620056,
BMP,Brampton Island,AU,QLD,,BMP,Brampton Island Arpt,N,,,,,,-20.80330086,149.2700043,
BMS,Brumado,BR,BA,,BMS,S Mariani Bittencourt Arpt,N,International,Latin America,South America,South America,South America,-14.2553997,-41.81750107,
BMU,Bima,ID,,,BMU,Sultan M Salahuddin Arpt,N,,,,,,-8.539649963,118.6869965,
BMV,Banmethuot,VN,,,BMV,Phung Duc Arpt,N,,,,,,12.66829968,108.1200027,
UTB,Muttaburra,AU,,,,,N,,,,,,-22.58329964,144.5330048,
BMX,Big Mountain,US,AK,,BMX,Big Mountain Arpt,N,,,,,,59.36119843,-155.2590027,
VNR,Vanrook,AU,QLD,,,,N,,,,,,-16.9633007,141.9499969,
BNA,Nashville,US,TN,,BNA,Nashville International Arpt,N,North America,North America,North America,North America,North America,36.12450027,-86.67819977,
WIN,Winton,AU,QLD,,,,N,,,,,,-22.36359978,143.0859985,
BND,Bandar Abbas,IR,,,BND,Bandar Abbas Intl Airport,N,,,,,,27.21829987,56.37779999,
BNE,Brisbane,AU,QLD,,BNE,Brisbane Arpt,N,,,,,,-27.38419914,153.1170044,
BNF,Baranof,US,AK,,BNF,Baranof Arpt,N,,,,,,57.088799,-134.833146,
BNG,Banning,US,CA,,BNG,Banning Arpt,N,North America,North America,North America,North America,North America,33.92309952,-116.8509979,
BNI,Benin City,NG,,,BNI,Benin Airport,N,,,,,,6.316979885,5.599500179,
BNJ,Bonn,DE,,,BNJ,"Cologne/Bonn, Bonn Hbf Rail Station",Y,,,,,,50.76889038,7.163332939,
BNK,Ballina,AU,NSW,,BNK,Ballina Arpt,N,International,Pac-North,Australia,Australia,APAC,-28.83390045,153.5619965,
WLL,Wollogorang,AU,QLD,,,,N,International,Pac-North,Australia,Australia,APAC,-17.2199,137.93453,
BNN,Bronnoysund,NO,,,BNN,Bronnoy Arpt,N,,,,,,65.46109772,12.21749973,
BNO,Burns,US,OR,,BNO,Burns Municipal Arpt,N,North America,North America,North America,North America,North America,43.59189987,-118.9550018,
WWY,West Wyalong,AU,NSW,,,,N,,,,,,-33.93719864,147.1909943,
BNS,Barinas,VE,,,BNS,Barinasairport,N,,,,,,8.615,-70.21416667,
ZBO,Bowen,AU,QLD,,,,N,,,,,,-20.0182991,148.2149963,
BNU,Blumenau,BR,SC,,BNU,Blumenau Arpt,N,International,Latin America,South America,South America,South America,-26.83060074,-49.09030151,
BNX,Banja Luka,BA,,,BNX,Banja Luka Arpt,N,,,,,,44.94139862,17.29750061,
KYF,Yeelirrie,AU,WA,,,[Duplicate] Yeelirrie Airport,N,,,,,,-27.27689934,120.0960007,
BOB,Bora Bora,PF,,,BOB,Motu Mute Arpt,N,,,,,,-16.44440079,-151.7510071,
BOC,Bocas Del Toro,PA,,,BOC,Isla Colon International,N,,,,,,9.340849876,-82.25080109,
BOD,Bordeaux,FR,,,BOD  ZFQ,Bordeaux Arpt,N,,,,,,44.82830048,-0.715556026,
CTR,Cattle Creek,AU,NT,,,[Duplicate] Cattle Creek Airport,N,International,Pac-North,Australia,Australia,APAC,-17.60700035,131.548996,
BOG,Bogota,CO,,,BOG,El Dorado International,N,,,,,,4.70159,-74.1469,
BOH,Bournemouth,GB,,,BOH  POQ,Bournemouth Intl Arpt,N,,,,,,50.77999878,-1.842499971,
BOI,Boise,US,ID,,BOI,Boise Municipal Arpt Gowen Field,N,North America,North America,North America,North America,North America,43.5644,-116.223,
BOJ,Bourgas,BG,,,BOJ,Bourgas Arpt,N,,,,,,42.56959915,27.51519966,
BOK,Brookings,US,OR,,BOK,Brookings Arpt,N,North America,North America,North America,North America,North America,42.0746,-124.290001,
BOM,Mumbai,IN,,,BOM,Chhatrapati Shivaji,N,,,,,,19.08869934,72.86789703,
BON,Bonaire,BQ,,,BON,Flamingo Field,N,,,,,,12.13099957,-68.26850128,
BOO,Bodo,NO,,,BOO  ZXM,Bodo Arpt,N,,,,,,67.26920319,14.36530018,
MNW,Macdonald Downs,AU,NT,,,[Duplicate] Macdonald Downs Airport,N,International,Pac-North,Australia,Australia,APAC,-22.44400024,135.1990051,
BOS,Boston,US,MA,,BNH  BOS  ZRU  ZTO  ZTY,Boston Edward L Logan Intl Apt,N,North America,North America,North America,North America,North America,42.36429977,-71.00520325,
BOT,BOSSET,PG,,,BOT,Bosset Airport,N,,,,,,-7.237257,141.1063222,
BOU,Bourges,FR,,,BOU,Bourges Arpt,N,,,,,,47.05810165,2.370280027,
NKB,Noonkanbah,AU,WA,,,[Duplicate] Noonkanbah Airport,N,International,Pac-North,Australia,Australia,APAC,-18.49469948,124.8519974,
BOW,Bartow,US,FL,,BOW,Bartow Arpt,N,,,,,,27.94339943,-81.78340149,
BOX,Borroloola,AU,NT,,BOX,Borroloola Arpt,N,,,,,,-16.07530022,136.302002,
BOY,Bobo Dioulasso,BF,,,BOY,Borgo Arpt,N,,,,,,11.16009998,-4.33096981,
WRW,Warrawagine,AU,WA,,,[Duplicate] Warrawagine Airport,N,International,Pac-North,Australia,Australia,APAC,-20.84420013,120.7020035,
NEB,Nebo,AU,,,,,N,,,,,,,,
BPE,Qinhuangdao,CN,,,BPE,Beidaihe Arpt,N,,,,,,39.666389,119.058889,
BPG,Barra Do Garcas,BR,MT,,BPG,Barra do Garcas Airport,N,International,Latin America,South America,South America,South America,-15.86130047,-52.38890076,
YLV,Yevlakh,AZ,,,,,N,,,,,,40.631901,47.141899,
BPL,Bole,CN,,,BPL,Alashankou Airport,N,International,Pac-South,Asia,Asia,APAC,44.895,82.3,
BPN,Balikpapan,ID,,,BPN,Sepingan Arpt,N,,,,,,-1.268270016,116.8939972,
BPO,Boao,CN,,,BPO,Boao Rail Station,Y,,,,,,,,
BPS,Porto Seguro,BR,BA,,BPS,Porto Seguro Arpt,N,,,,,,-16.438601,-39.080898,
BPT,Beaumont,US,TX,,BMT  BPT,Port Arthur J Brooks Regional Arpt,N,North America,North America,North America,North America,North America,29.95079994,-94.02069855,
BPU,Beppu,JP,,,BPU,Beppu Railway Station,Y,International,Pac-North,Asia,Asia,APAC,33.3,131.5333333,
BPX,Qamdo,CN,,,BPX,Qamdo Bangda Arpt,N,,,,,,30.55360031,97.10829926,
GNE,Ghent,BE,,,,,N,,,,,,,,
BQB,Busselton,AU,WA,,BQB,Busselton Arpt,N,International,Pac-North,Australia,Australia,APAC,-33.68842316,115.4015961,
BQG,Bogorodskoye,RU,,,BQG,Bogorodskoye Airport,N,,,,,,52.38,140.448,
BQJ,Batagay,RU,,,BQJ,Batagay Arpt,N,,,,,,67.64800262,134.6950073,
BQK,Brunswick,US,GA,,BQK,Brunswick Golden Isles Arpt,N,North America,North America,North America,North America,North America,31.25880051,-81.46649933,
BQL,Boulia,AU,QLD,,BQL,Boulia Arpt,N,International,Pac-North,Australia,Australia,APAC,-22.91329956,139.8999939,
BQN,Aguadilla,US,PR,,BQN,Rafael Hernandez Arpt,N,,,,,,18.49489975,-67.12940216,
MWW,MOUSCRON,BE,,,,,N,,,,,,,,
BQS,Blagoveshchensk,RU,,,BQS,Blagoveshchensk Arpt,N,International,EMEA,Asia,Europe,Russia,50.42539978,127.4120026,
BQT,Brest,BY,,,BQT,Brest Arpt,N,,,,,,52.108299,23.8981,
BQU,Port Elizabeth,VC,,,BQU,JF Mitchell Airport,N,,,,,,12.98840046,-61.26200104,
BRA,Barreiras,BR,BA,,BRA,Barreiras Arpt,N,,,,,,-12.07890034,-45.00899887,
BRC,San Carlos Bariloche,AR,,,BRC,San Carlos Bariloche Arpt,N,,,,,,-41.151199,-71.157501,
BRD,Brainerd,US,MN,,BRD,Brainerd Lakes Rgnl Arpt,N,North America,North America,North America,North America,North America,46.39830017,-94.13809967,
BRE,Bremen,DE,,,BRE,Bremen Airport,N,,,,,,53.04750061,8.786669731,
BRF,Bradford,GB,,,BRF,Bradford Rail Station,Y,International,EMEA,Atlantic,Europe,EMEA,51,-3.183333333,
OBL,Zoersel,BE,,,,,N,,,,,,51.264702,4.75333,
BRI,Bari,IT,,,BAU  BRI,Bari Airport,N,,,,,,41.138901,16.760599,
BRK,Bourke,AU,NSW,,BRK,Bourke Airport,N,,,,,,-30.03919983,145.9519958,
BRL,Burlington,US,IA,,BRL,Burlington Municipal Arpt,N,North America,North America,North America,North America,North America,40.78319931,-91.12550354,
BRM,Barquisimeto,VE,,,BRM,Jacinto Lara International,N,,,,,,10.04274654,-69.35861969,
BRN,Berne,CH,,,BRN  ZDJ,Belp Airport,N,,,,,,46.91410065,7.497149944,
BRO,Brownsville,US,TX,,BRO,South Padre Island Intl Arpt,N,North America,North America,North America,North America,North America,25.90679932,-97.42590332,
QHA,Hasselt,BE,,,,,N,,,,,,,,
BRQ,Brno,CZ,,,BRQ  ZDN,Turany Arpt,N,,,,,,49.15129852,16.69440079,
BRR,Barra,GB,,,BRR,North Bay Arpt,N,,,,,,57.0228,-7.44306,
BRS,Bristol,GB,,,BPR  BRS  TPB,Bristol Intl Arpt,N,,,,,,51.382702,-2.71909,
BRT,Bathurst Isl,AU,NT,,BRT,Bathurst Island Arpt,N,,,,,,-11.76920033,130.6199951,
BRU,Brussels,BE,,,BRU  CRL  XNL  ZWY  ZYR,Brussels National Arpt,N,,,,,,50.90140152,4.48443985,
BRV,Bremerhaven,DE,,,BRV,Bremerhaven Arpt,N,,,,,,53.506943,8.572778,
BRW,Barrow,US,AK,,BRW  PBA,Barrow W Post W Rogers Memorial Arpt,N,North America,North America,North America,North America,North America,71.285402,-156.766008,
BRX,Barahona,DO,,,BRX,Maria Montez International,N,,,,,,18.25149918,-71.12039948,
QON,Arlon,BE,,,,,N,,,,,,,,
BSA,Bosaso,SO,,,BSA,Bosaso International Arpt,N,,,,,,11.27530003,49.1493988,
BSB,Brasilia,BR,DF,,BSB,J Kubitschek Intl Arpt,N,,,,,,-15.86916733,-47.92083359,
BSC,Bahia Solano,CO,,,BSC,Aeropuerto Jose Celestino Mutis,N,,,,,,6.20292,-77.3947,
BSD,Baoshan,CN,,,BSD,Baoshan Arpt,N,,,,,,25.053301,99.168297,
BSE,Sematan,MY,,,BSE,Sematan Airport,N,International,Pac-North,Asia,Asia,APAC,1.813609958,109.7630005,
BSG,Bata,GQ,,,BSG,Bata Airport,N,,,,,,1.905470014,9.805680275,
BSH,Brighton,GB,,,BSH,Brighton Airport,N,,,,,,,,
BSI,Polilio,PH,,,BSI,Balesin Island Airport,N,,,,,,14.419365,122.039402,
BSJ,Bairnsdale,AU,VIC,,BSJ,Bairnsdale Airport,N,International,Pac-North,Australia,Australia,APAC,-37.88750076,147.5679932,
BSK,Biskra,DZ,,,BSK,Biskra Arpt,N,,,,,,34.79330063,5.738230228,
BSL,Basel,CH,,EAP,BSL  ZDH,Basel EuroAirport Swiss,N,,,,,,47.59,7.5291667,
BSO,Basco,PH,,,BSO,Basco Airport,N,,,,,,20.4513,121.980003,
ZGK,Leuven,BE,,,,,N,,,,,,,,
BSQ,Bisbee,US,AZ,,BSQ,Bisbee Municipal Arpt,N,,,,,,31.36400032,-109.8830032,
BSR,Basra,IQ,,,BSR,Basra Intl Arpt,N,,,,,,30.54910088,47.66210175,
ZGP,Mechelen,BE,,,,,N,,,,,,,,
ZGQ,Tournai,BE,,,,,N,,,,,,,,
BSW,Boswell Bay,US,AK,,BSW,Boswell Bay Arpt,N,North America,North America,North America,North America,North America,60.42309952,-146.1459961,
ZGV,Wavre,BE,,,,,N,International,EMEA,0,Europe,EMEA,0,0,
BTC,Batticaloa,LK,,,BTC,Batticaloa Arpt,N,,,,,,7.70576,81.678802,
BTF,Bountiful,US,UT,,BTF,Skypark,N,,,,,,40.86940002,-111.927002,
BTH,Batam,ID,,,BTH,Hang Nadim Arpt,N,,,,,,1.121029973,104.1190033,
ARL,Arly,BF,,,,,N,International,EMEA,Africa,Africa,EMEA,11.59700012,1.48300004,
BTJ,Banda Aceh,ID,,,BTJ,Blang Bintang Arpt,N,,,,,,5.522872024,95.42063713,
BTK,Bratsk,RU,,,BTK,Bratsk Arpt,N,,,,,,56.37060165,101.697998,
BTL,Battle Creek,US,MI,,BTL,WK Kellogg Regional,N,North America,North America,North America,North America,North America,42.30730057,-85.25150299,
BTM,Butte,US,MT,,BTM,Bert Mooney Arpt,N,North America,North America,North America,North America,North America,45.95479965,-112.4970016,
BTP,Butler,US,PA,,BTP,Butler County Arpt,N,,,,,,40.776901,-79.949699,
BTR,Baton Rouge,US,LA,,BTR,Metropolitan Ryan Field Arpt,N,North America,North America,North America,North America,North America,30.533199,-91.149597,
BTS,Bratislava,SK,,,BTS  ZRG,Ivanka Arpt,N,,,,,,48.17020035,17.21269989,
DOR,Dori,BF,,,,,N,,,,,,14.03299999,-0.033,
BTU,Bintulu,MY,,,BTU,Bintulu Arpt,N,,,,,,3.123850107,113.0199966,
BTV,Burlington,US,VT,,BTV,Burlington Intl Arpt,N,North America,North America,North America,North America,North America,44.47190094,-73.15329742,
BUA,Buka Island,PG,,,BUA,Buka Airport,N,,,,,,-5.422319889,154.6730042,
BUC,Burketown,AU,QLD,,BUC,Burketown Arpt,N,,,,,,-17.74860001,139.5339966,
BUD,Budapest,HU,,,BUD  XXJ  XXQ,Liszt Ferenc Arpt,N,,,,,,47.43690109,19.25559998,
TEG,Tenkodogo,BF,,,,,N,,,,,,11.80000019,-0.367000014,
BUF,Buffalo,US,NY,,BUF  ZFZ  ZXS,Greater Buffalo Intl Arpt,N,North America,North America,North America,North America,North America,42.94049835,-78.73220062,
BUG,Benguela,AO,,,BUG,Benguela Airport,N,,,,,,-12.60900021,13.40369987,
XGG,Gorom,BF,,,,,N,,,,,,14.44999981,-0.232999995,
PVN,Pleven,BG,,,,,N,,,,,,,,
SLS,Silistra,BG,,,,,N,,,,,,44.055199,27.178801,
BUL,Bulolo,PG,,,BUL,Bulolo Airport,N,,,,,,-7.216286671,146.6495419,
BUM,Butler,US,MO,,BUM,Butler Memorial Arpt,N,,,,,,38.28979874,-94.34010315,
BUN,Buenaventura,CO,,,BUN,Gerardo Tobar Lopez Arpt,N,,,,,,3.81963,-76.9898,
TGV,Targovishte,BG,,,,,N,,,,,,43.30659866,26.70089912,
BUP,Bhatinda,IN,,,BUP,Bhatinda Air Force Station,N,International,Pac-North,Asia,Asia,APAC,30.27009964,74.75579834,
BUQ,Bulawayo,ZW,,,BUQ,Bulawayo Arpt,N,,,,,,-20.01740074,28.61790085,
BUR,Burbank,US,CA,LAX,BUR  JPD,Burbank Glendale Pasadena Arpt,N,North America,North America,North America,North America,North America,34.20069885,-118.3590012,
BUS,Batumi,GE,,,BUS,Batumi Arpt,N,,,,,,41.61029816,41.59970093,
BUW,Baubau,ID,,,BUW,Baubau Arpt,N,International,Pac-South,Asia,Asia,APAC,-5.486879826,122.5690002,
VID,Vidin,BG,,,,,N,,,,,,,,
BUY,Bunbury,AU,WA,,BUY,Bunbury Arpt,N,,,,,,-33.37829971,115.677002,
BUZ,Bushehr,IR,,,BUZ,Bushehr Arpt,N,,,,,,28.94479942,50.83459854,
BVA,Beauvais Tille,FR,,PAR,BVA,Beauvais Tille Arpt,N,,,,,,49.45439911,2.112780094,
BVB,Boa Vista,BR,RR,,BVB,A B Cantanhede Intl Arpt,N,,,,,,2.841388941,-60.6922226,
BVC,Boa Vista,CV,,,BVC,Rabil Arpt,N,,,,,,16.1364994,-22.88890076,
BVE,Brive La Gaill,FR,,,BVE,Laroche Airport,N,,,,,,45.039722,1.485556,
BVG,Berlevag,NO,,,BVG,Berlevag Arpt,N,,,,,,70.871399,29.034201,
BVH,Vilhena,BR,RO,,BVH,Brigadeiro Camarao Arpt,N,,,,,,-12.69439983,-60.09830093,
BVI,Birdsville,AU,QLD,,BVI,Birdsville Arpt,N,,,,,,-25.89749908,139.3480072,
BVO,Bartlesville,US,OK,,BVO,Bartlesville Municipal Arpt,N,North America,North America,North America,North America,North America,36.76250076,-96.01119995,
BVQ,Baoding,CN,,,BVQ,Baoding Rail Station,Y,,,,,,,,
BVR,Brava,CV,,,BVR,Esperadinha,N,,,,,,14.86430556,-24.746,
BVU,Beluga,US,AK,,BVU,Beluga Arpt,N,,,,,,61.17219925,-151.0440063,
BVX,Batesville,US,AR,,BVX,Batesville Municipal,N,North America,North America,North America,North America,North America,35.7262001,-91.64730072,
BVY,Beverly,US,MA,,BVY,Beverly Municipal Arpt,N,North America,North America,North America,North America,North America,42.58420181,-70.91649628,
BWA,Bhairawa,NP,,,BWA,Gautam Buddha Arpt,N,,,,,,27.505685,83.416293,
BWC,Brawley,US,CA,,BWC,Brawley Arpt,N,,,,,,32.99290085,-115.5169983,
BWD,Brownwood,US,TX,,BWD,Brownwood Regional Arpt,N,North America,North America,North America,North America,North America,31.79360008,-98.95649719,
BWE,Braunschweig,DE,,,BWE,Braunschweig Arpt,N,,,,,,52.319199,10.5561,
BWF,Barrow In Furness,GB,,,BWF,Walney Island,N,,,,,,54.1286111,-3.2675,
BWG,Bowling Green,US,KY,,BWG,Warren Cty Arpt,N,North America,North America,North America,North America,North America,36.96450043,-86.41970062,
BWI,Baltimore,US,MD,WAS,,Baltimore Washington Intl Arpt,N,North America,North America,North America,North America,North America,39.1754,-76.668297,
BWK,Brac,HR,,,BWK,Brac Arpt,N,International,EMEA,Atlantic,Europe,EMEA,43.28570175,16.67970085,
BWN,Bandar Seri Begawan,BN,,,BWN,Brunei Intl Arpt,N,,,,,,4.944200039,114.9280014,
BWQ,Brewarrina,AU,NSW,,BWQ,Brewarrina Arpt,N,,,,,,-29.97389984,146.8170013,
BWT,Burnie,AU,TAS,,BWT,Burnie Wynyard Arpt,N,International,Pac-North,Australia,Australia,APAC,-40.99890137,145.7310028,
BWU,Bankstown,AU,NSW,,BWU,Bankstown Aerodrome,N,International,Pac-North,Australia,Australia,APAC,-33.92440033,150.9880066,
BWX,Banyuwangi,ID,,,BWX,Blimbingsari Arpt,N,,,,,,-8.31015,114.3401,
KRE,Kirundo,BI,,,,,N,,,,,,-2.544772,30.094575,
BYC,Yacuiba,BO,,,,,N,,,,,,-21.96089935,-63.65169907,
GYA,Guayaramerin,BO,,,,,N,,,,,,-10.82059956,-65.34559631,
MGD,Magdalena,BO,,,,,N,,,,,,-13.26074838,-64.06076431,
RBQ,Rurrenabaque,BO,,,,,N,,,,,,-14.42790031,-67.49680328,
BXK,Buckeye,US,AZ,,BXK,Buckeye Arpt,N,,,,,,33.42039871,-112.685997,
BXN,Bodrum X,TR,,,BJV,Imsik Arpt,N,International,EMEA,Middle East,Europe,EMEA,37.14009857,27.66970062,
BXO,Buochs,CH,,,BXO,Buochs airport,N,,,,,,46.974444,8.396944,
BXS,Borrego Springs,US,CA,,BXS,Borrego Valley Arpt,N,North America,North America,North America,North America,North America,33.25899887,-116.3209991,
BXU,Butuan,PH,,,BXU,Butuan Bancasi Arpt,N,,,,,,8.9515,125.4788,
SBL,Santa Ana,BO,,,,,N,,,,,,-13.76220036,-65.43520355,
BXW,Bawean,ID,,,BXW,Bawean Airport,N,,,,,,-5.723676,112.679592,
BXY,Baykonur,KZ,,,BXY,Krayniy Arpt,N,,,,,,45.621994,63.210773,
SJB,San Joaquin,BO,,,,,N,,,,,,-13.0528,-64.661697,
SNG,San Ignacio Velasco,BO,,,,,N,,,,,,-16.38360023,-60.96279907,
SRJ,San Borja,BO,,,,,N,,,,,,-14.85919952,-66.73750305,
BYF,Meaulte,FR,,,BYF,Albert Arpt,N,International,EMEA,Atlantic,Europe,EMEA,49.9715004,2.697659969,
BYI,Burley,US,ID,,BYI,Burley Municipal Arpt,N,,,,,,42.54259872,-113.7720032,
BYJ,Beja,PT,,,BYJ,Beja International Airport,N,,,,,,38.078899,-7.9324,
AIF,Assis,BR,SP,,,,N,International,Latin America,South America,South America,South America,-22.64,-50.453056,
BYM,Bayamo,CU,,,BYM,Carlos M De Cespedes Arpt,N,,,,,,20.39640045,-76.62139893,
BYO,Bonito,BR,MS,,BYO,Bonito Airport,N,International,Latin America,South America,South America,South America,-21.2473,-56.4525,
BYP,Barimunya,AU,WA,,BYP,Barimunya Airport,N,,,,,,-22.6739006,119.1660004,
BYR,Laeso Island,DK,,,BYR,Laeso Airport,N,,,,,,57.27719879,11.00010014,
BYS,Fort Irwin,US,CA,,BYS,Fort Irwin Arpt,N,,,,,,35.2804985,-116.6299973,
AIR,Aripuana,BR,MT,,,,N,International,Latin America,South America,South America,South America,-10.188278,-59.457273,
BYU,Bayreuth,DE,,,BYU,Bindlacher Berg Arpt,N,,,,,,49.98500061,11.64000034,
BYW,Blakely Island,US,WA,,BYW,Blakely Is Municipal,N,North America,North America,North America,North America,North America,48.57899857,-122.8259964,
BZC,Buzios,BR,RJ,,BZC,Umberto Modiano Arpt,N,International,Latin America,South America,South America,South America,-22.77099991,-41.96289825,
AXE,Xanxere,BR,SC,,,,N,International,Latin America,South America,South America,South America,-26.87555695,-52.3730545,
BZE,Belize City,BZ,,,TZA,Belize Intl Arpt,N,,,,,,17.53910065,-88.30819702,
BZG,Bydgoszcz,PL,,,BZG,Bydgoszcz Arpt,N,,,,,,53.09680176,17.97769928,
BZH,Bumi Hills,ZW,,,BZH,Bumi Hills Arpt,N,,,,,,-16.81699944,28.35000038,
BZI,Balikesir,TR,,,BZI,Balikesir Arpt,N,,,,,,39.61930084,27.9260006,
BZK,Bryansk,RU,,,BZK,Bryansk Airport,N,,,,,,53.214199,34.176399,
BZL,Barisal,BD,,,BZL,Barisal Airport,N,,,,,,22.8010006,90.30120087,
BGX,Bage,BR,RS,,,,N,,,,,,-31.39049911,-54.11220169,
BZN,Bozeman,US,MT,,BZN,Yellowstone Intl Arpt,N,North America,North America,North America,North America,North America,45.77750015,-111.1529999,
BZO,Bolzano,IT,,,BZO  BZQ,Bolzano Arpt,N,,,,,,46.460201,11.3264,
BZR,Beziers,FR,,,BZR,Beziers Vias Arpt,N,,,,,,43.32350159,3.353899956,
BZT,Brazoria,US,TX,,BZT,Eagle Air Park Arpt,N,,,,,,28.98220062,-95.57969666,
BZV,Brazzaville,CG,,,BZV,Maya Maya Arpt,N,,,,,,-4.251699924,15.25300026,
BHZ,Belo Horizonte,BR,,,CNF  PLU,,N,,,,,,,,
BZZ,Brize Norton,GB,,,,Brize Norton Raf Station,N,International,EMEA,Atlantic,Europe,EMEA,51.75,-1.58362,
BJP,Braganca Paulista,BR,SP,,,,N,International,Latin America,South America,South America,South America,-22.979162,-46.537508,
BSS,Balsas,BR,MA,,,,N,,,,,,-7.526030064,-46.05329895,
CAC,Cascavel,BR,PR,,CAC,A Mendes Da Silva Arpt,N,,,,,,-25.00029945,-53.50080109,
CAD,Cadillac,US,MI,,CAD,Wexford County Arpt,N,North America,North America,North America,North America,North America,44.27529907,-85.41889954,
CAE,Columbia,US,SC,,CAE  CUB  MMT,Columbia Metro Arpt,N,North America,North America,North America,North America,North America,33.93880081,-81.11949921,
CAF,Carauari,BR,AM,,CAF,Carauari Arpt,N,International,Latin America,South America,South America,South America,-4.871520042,-66.89749908,
CAG,Cagliari,IT,,,CAG,Elmas Airport,N,International,EMEA,Atlantic,Europe,EMEA,39.251499,9.05428,
CAH,Ca Mau City,VN,,,CAH,Ca Mau Arpt,N,International,Pac-North,Asia,Asia,APAC,9.177667,105.177778,
CAI,Cairo,EG,,,CAI  CCE,Cairo Intl Arpt,N,,,,,,30.12190056,31.40559959,
CBW,Campo Mourao,BR,PR,,,,N,International,Latin America,South America,South America,South America,-24.00919914,-52.35680008,
CAK,Akron,US,OH,,AKC  CAK,Canton Regional Arpt,N,North America,North America,North America,North America,North America,40.91609955,-81.44219971,
CAL,Campbelltown,GB,,,CAL,Machrihanish Arpt,N,,,,,,55.43719864,-5.686389923,
CAM,Camiri,BO,,,CAM,Choreti Arpt,N,,,,,,-20.00639915,-63.52780151,
CAN,Guangzhou,CN,,,CAN  ZIY,Baiyun International Arpt,N,,,,,,23.39240074,113.2990036,
CAP,Cap Haitien,HT,,,CAP,Hugo Chavez Intl,N,,,,,,19.733,-72.194702,
CAQ,Caucasia,CO,,,CAQ,Juan H White Arpt,N,,,,,,7.96847,-75.1985,
CAR,Caribou,US,ME,,CAR,Caribou Municipal Arpt,N,International,Latin America,South America,South America,Latin America,46.87149811,-68.01789856,
CAS,Casablanca,MA,,,CAS  CMN,Anfa Airport,N,,,,,,33.55329895,-7.661389828,
CAT,Cascais,PT,,,CAT,Tires,N,International,EMEA,Middle East,Asia,EMEA,38.724998,-9.35523,
CAU,Caruaru,BR,PE,,CAU,Oscar Laranjeiras Arpt,N,International,Latin America,South America,South America,South America,-8.282389641,-36.01350021,
CAW,Campos Dos Goytacaze,BR,RJ,,CAW,Bartolomeu Lisandro Arpt,N,,,,,,-21.69829941,-41.30170059,
CAX,Carlisle,GB,,,CAX  CXX  KXN,Carlisle Arpt,N,International,EMEA,Atlantic,Europe,EMEA,54.9375,-2.809170008,
CAY,Cayenne,GF,,,CAY,Felix Eboue Airport,N,,,,,,4.819809914,-52.36040115,
CAZ,Cobar,AU,NSW,,CAZ,Cobar Arpt,N,,,,,,-31.53829956,145.7940063,
CBA,Corner Bay,US,AK,,CBA,Corner Bay Arpt,N,North America,North America,North America,North America,North America,57,-135,
CBB,Cochabamba,BO,,,CBB,Jorge Wilsterman Intl,N,,,,,,-17.42110062,-66.17710114,
CBD,Car Nicobar,IN,,,CBD,Car Nicobar Air Force Base,N,International,Pac-North,Asia,Asia,APAC,9.152509689,92.81960297,
CBE,Cumberland,US,MD,,CBE,Cumberland Municipal Arpt,N,North America,North America,North America,North America,North America,39.61539841,-78.7609024,
CBF,Council Bluffs,US,IA,,CBF,Council Bluffs Municipal Arpt,N,,,,,,41.25920105,-95.76059723,
CBG,Cambridge,GB,,,CBG,Cambridge Arpt,N,International,EMEA,Atlantic,Europe,EMEA,52.205002,0.175,
CBH,Bechar,DZ,,,CBH,Boudghene b Ali Lotfi Arpt,N,,,,,,31.64570045,-2.269860029,
CBK,Colby,US,KS,,CBK,Colby Municipal Arpt,N,,,,,,39.42750168,-101.0469971,
CBL,Ciudad Bolivar,VE,,,CBL,Tomas De Heres Arpt,N,International,Latin America,South America,South America,Latin America,8.122160912,-63.53695679,
CBN,Cirebon,ID,,,CBN,Penggung Arpt,N,,,,,,-6.756140232,108.5400009,
CBO,Cotabato,PH,,,CBO,Awang Arpt,N,,,,,,7.165239811,124.2099991,
CBP,Coimbra,PT,,,CBP,Coimbra Arpt,N,,,,,,,,
CBQ,Calabar,NG,,,CBQ,Calabar Arpt,N,,,,,,4.976019859,8.347200394,
CBR,Canberra,AU,ACT,,CBR,Canberra Arpt,N,,,,,,-35.30690002,149.1950073,
CBS,Cabimas,VE,,,CBS,Oro Negro Arpt,N,,,,,,10.33069992,-71.32250214,
CBT,Catumbela,AO,,,CBT,Catumbela Arpt,N,,,,,,-12.4792,13.4869,
CCX,Caceres,BR,MT,,,,N,,,,,,-16.04360008,-57.62990189,
CDJ,Conceicao Do Araguaia,BR,PA,,,,N,,,,,,-8.348349571,-49.30149841,
CMC,Camocim,BR,CE,,,,N,International,Latin America,South America,South America,South America,-2.896179914,-40.85800171,
CCA,Chimore,BO,,,CCA,Chimore Arpt,N,,,,,,-16.976834,-65.145568,
CMP,Campo Alegre,BR,PA,,,,N,International,Latin America,South America,South America,South America,-9.319970131,-50.32849884,
CCC,Cayo Coco,CU,,,CCC,Jardines Del Rey Arpt,N,,,,,,22.46100044,-78.32839966,
CCD,Century City,US,CA,,CCD,Century City Heliport,N,North America,North America,North America,North America,North America,34.06079865,-118.4179993,
CCF,Carcassonne,FR,,,CCF,Salvaza,N,International,EMEA,Atlantic,Europe,EMEA,43.2159996,2.306319952,
CCI,Concordia,BR,SC,,CCI,Olavo Cecco Rigon Arpt,N,,,,,,-27.18059921,-52.05270004,
CCJ,Kozhikode,IN,,,CCJ,Kozhikode Arpt,N,International,Pac-North,Asia,Asia,APAC,11.13679981,75.95529938,
CCK,Cocos Islands,CC,,,CCK,Cocos Islands Arpt,N,International,Pac-North,Australia,Australia,APAC,-12.18830013,96.83390045,
CSS,Cassilandia,BR,MS,,,,N,International,Latin America,South America,South America,South America,-19.14638901,-51.68527985,
CCM,Criciuma,BR,SC,,CCM,Diomicio Freitas Arpt,N,International,Latin America,South America,South America,South America,-28.72444344,-49.42139053,
CCP,Concepcion,CL,,,CCP,Carriel Sur Arpt,N,,,,,,-36.772701,-73.063103,
CCR,Concord,US,CA,,CCR,Buchanan Field,N,North America,North America,North America,North America,North America,37.98970032,-122.0569992,
CCS,Caracas,VE,,,CCS,Simon Bolivar  Intl,N,,,,,,10.601194,-66.991222,
GPB,Guarapuava,BR,PR,,,,N,,,,,,-25.38750076,-51.52019882,
CCU,Kolkata,IN,,,CCU,Netaji Subhas Chandra Bose Intl,N,,,,,,22.65469933,88.44670105,
CCV,Craig Cove,VU,,,CCV,Craig Cove Arpt,N,,,,,,-16.264999,167.923996,
GRP,Gurupi,BR,TO,,,,N,,,,,,-11.73960018,-49.13219833,
GUJ,Guaratingueta,BR,SP,,,,N,International,Latin America,South America,South America,South America,-22.79159927,-45.20479965,
CCY,Charles City,US,IA,,CCY,Northeast Iowa Rgnl,N,North America,North America,North America,North America,North America,43.07260132,-92.6108017,
CDA,Cooinda,AU,NT,,CDA,Cooinda Airport,N,,,,,,-12.90330029,132.5319977,
GUZ,Guarapari,BR,ES,,,,N,International,Latin America,South America,South America,South America,-20.64649963,-40.4919014,
CDC,Cedar City,US,UT,,CDC,Cedar City Regional Arpt,N,North America,North America,North America,North America,North America,37.70100021,-113.098999,
CDD,Cauquira,HN,,,CDD,Cauquira Arpt,N,,,,,,15.316667,-83.591667,
CDE,Chengde,CN,,,CDE,Puning Airport,N,,,,,,41.1225,118.073889,
CDH,Camden,US,AR,,CDH,Harrell Fieldsandro Arpt,N,North America,North America,North America,North America,North America,33.62279892,-92.76339722,
CDI,Cachoeiro De Itapemirim,BR,ES,,CDI,Raimundo De Andrade Arpt,N,International,Latin America,South America,South America,South America,-20.83429909,-41.18560028,
IJU,Ijui,BR,RS,,,,N,,,,,,-28.36870003,-53.84659958,
CDL,Candle,US,AK,,CDL,Candle Arpt,N,North America,North America,North America,North America,North America,65.90769959,-161.9259949,
IPU,Ipiau,BR,BA,,,,N,International,Latin America,South America,South America,South America,-14.1338892,-39.73389053,
CDP,Cuddapah,IN,,,CDP,Cuddapah Airport,N,International,Pac-North,Asia,Asia,APAC,14.51,78.772778,
IRZ,Santa Isabel Rio Negro,BR,AM,,,,N,,,,,,-0.3786,-64.9923,
CDR,Chadron,US,NE,,CDR,Chadron Arpt,N,North America,North America,North America,North America,North America,42.83760071,-103.0950012,
CDT,Castellon de la Plana,ES,,,CDT  CPJ,Castellon De La Plana Arpt,N,,,,,,40.213889,0.073333,
CDV,Cordova,US,AK,,CDV  CKU,Cordova Merle K Mudhole Smith Arpt,N,North America,North America,North America,North America,North America,60.4917984,-145.4779968,
CDW,Caldwell,US,NJ,,CDW,Essex County Arpt,N,,,,,,40.87519836,-74.28140259,
CDZ,Cadiz,ES,,,CDZ,Cadiz Rail Station,Y,,,,,,,,
CEB,Cebu,PH,,,CEB,Cebu Intl,N,,,,,,10.30749989,123.9789963,
CEC,Crescent City,US,CA,,CEC,Del Norte County Rgnl Arpt,N,North America,North America,North America,North America,North America,41.78020096,-124.2369995,
CED,Ceduna,AU,SA,,CED,Ceduna Arpt,N,,,,,,-32.13059998,133.7100067,
ITJ,Itajai,BR,,,,,N,,,,,,,,
CEG,Chester,GB,,,CEG  CXE,Chester Arpt,N,,,,,,53.17810059,-2.977780104,
CEH,Chelinda,MW,,,CEH,Chelinda Arpt,N,,,,,,-10.55000019,33.79999924,
CEI,Chiang Rai,TH,,,CEI,Chaing Rai Arpt,N,,,,,,19.95229912,99.88289642,
CEJ,Cuenca,ES,,,CEJ,Cuenca Rail Station,Y,International,EMEA,0,Europe,EMEA,51.40219879,31.1583004,
CEK,Chelyabinsk,RU,,,CEK,Chelyabinsk Arpt,N,International,EMEA,Asia,Europe,Russia,55.305801,61.5033,
ITN,Itabuna,BR,BA,,,,N,,,,,,-14.81050015,-39.29040146,
CEN,Ciudad Obregon,MX,,,CEN,Ciudad Obregon International Arpt,N,International,Latin America,Mexico,North America,Mexico,27.39259911,-109.8330002,
ITR,Itumbiara,BR,GO,,,,N,International,Latin America,South America,South America,South America,-18.44470024,-49.21340179,
CEQ,Cannes,FR,,,CEQ  JCA  QYW,Mandelieu Arpt,N,,,,,,43.542,6.95348,
CER,Cherbourg,FR,,,CER,Maupertius Arpt,N,International,EMEA,Atlantic,Europe,EMEA,49.65010071,-1.470280051,
CES,Cessnock,AU,NSW,,CES,Cessnock Arpt,N,,,,,,-32.787498,151.341995,
CET,Cholet,FR,,,CET,Le Pontreau Arpt,N,International,EMEA,Atlantic,Europe,EMEA,47.08209991,-0.87706399,
CEU,Clemson,US,SC,,CEU,Clemson Oconee Cty Arpt,N,,,,,,34.6719017,-82.8864975,
CEX,Chena Hot Springs,US,AK,,CEX,Chena Hot Springs Arpt,N,,,,,,65.05180359,-146.0469971,
CEY,Murray,US,KY,,CEY,Calloway Cty Arpt,N,North America,North America,North America,North America,North America,36.66460037,-88.37280273,
CEZ,Cortez,US,CO,,CEZ,Cortez Municipal Arpt,N,North America,North America,North America,North America,North America,37.3030014,-108.6279984,
CFB,Cabo Frio,BR,RJ,,CFB,Cabo Frio International Arpt,N,International,Latin America,South America,South America,South America,-22.92169952,-42.07429886,
CFC,Cacador,BR,SC,,CFC,C A Da Costa Neves Arpt,N,International,Latin America,South America,South America,South America,-26.78840065,-50.93980026,
CFD,Bryan,US,TX,,CFD,Coulter Field Airport,N,North America,North America,North America,North America,North America,30.71570015,-96.33139801,
CFE,Clermont  Ferrand,FR,,,CFE,Aulnat Arpt,N,International,EMEA,Atlantic,Europe,EMEA,45.7867012,3.169169903,
CFG,Cienfuegos,CU,,,CFG,Jamie Gonzalez Arpt,N,,,,,,22.14999962,-80.41419983,
JUA,Juara,BR,MT,,,,N,,,,,,-11.2966,-57.5495,
CFK,Chlef,DZ,,,CFK,Chlef Arpt,N,,,,,,36.21269989,1.331769943,
CFM,Conklin,CA,AB,,CFM,Leismer Airport,N,,,,,,55.695301,-111.278999,
CFN,Donegal,IE,,,CFN,Donegal Arpt,N,International,EMEA,Atlantic,Europe,EMEA,55.0442009,-8.340999603,
CFQ,Creston,CA,BC,,CFQ,Creston Arpt,N,,,,,,49.03689957,-116.4980011,
CFR,Caen,FR,,,CFR,Carpiquet Arpt,N,International,EMEA,Atlantic,Europe,EMEA,49.1733017,-0.449999988,
CFS,Coffs Harbour,AU,NSW,,CFS,Coffs Harbour Arpt,N,,,,,,-30.32060051,153.1159973,
CFT,Clifton,US,AZ,,CFT,Clifton Arpt,N,North America,North America,North America,North America,North America,32.95280075,-109.2099991,
CFU,Kerkyra,GR,,,CFU,I Kapodistrias Arpt,N,,,,,,39.60189819,19.9116993,
CGA,Craig,US,AK,,CGA,Craig Seaplane Base,N,North America,North America,North America,North America,North America,55.47880173,-133.147995,
CGB,Cuiaba,BR,MT,,CGB,Marechal Rondon Intl Arpt,N,,,,,,-15.65289974,-56.11669922,
LIP,Lins,BR,SP,,,,N,International,Latin America,South America,South America,South America,-21.66399956,-49.73049927,
CGD,Changde,CN,,,CGD,Changde Arpt,N,,,,,,28.91889954,111.6399994,
LVB,Livramento,BR,RS,,,,N,,,,,,-30.8354,-55.62565,
CGI,Cape Girardeau,US,MO,,CGI,Cape Girardeau Municipal Arpt,N,North America,North America,North America,North America,North America,37.22529984,-89.57080078,
NPR,Novo Progresso,BR,PA,,,,N,,,,,,-7.125833,-55.400833,
CGM,Camiguin,PH,,,CGM,Mambajao Arpt,N,,,,,,9.253520012,124.7070007,
CGN,Cologne,DE,,,CGN  QBB  QKL  QKU  ZFF,Koeln Bonn Arpt,N,International,EMEA,Atlantic,Europe,EMEA,50.86589813,7.142739773,
CGO,Zhengzhou,CN,,,CGO  TTZ,Zhengzhou Arpt,N,,,,,,34.5196991,113.8410034,
CGP,Chittagong,BD,,,CGP,Patenga Arpt,N,,,,,,22.24959946,91.81330109,
CGQ,Changchun,CN,,,CGQ  VWB,Changchun Arpt,N,,,,,,43.99620056,125.6849976,
CGR,Campogrande,BR,MS,,CGR,Internacional,N,,,,,,-20.46870041,-54.67250061,
OLC,Sao Paulo de Olivenca,BR,AM,,,,N,,,,,,-3.467929508,-68.92041206,
OTT,Cotriguacu,BR,MT,,,,N,,,,,,-9.898611,-58.581944,
CGY,Cagayan,PH,,,CGY,Laguindingan Intl Arpt,N,,,,,,8.612203,124.456496,
CGZ,Casa Grande,US,AZ,,CGZ,Casa Grande Arpt,N,,,,,,32.954899,-111.766998,
CHA,Chattanooga,US,TN,,CHA  QDK,Chattanooga Metropolitan Arpt,N,North America,North America,North America,North America,North America,35.03530121,-85.20379639,
CHC,Christchurch,NZ,,,CHC,Christchurch Arpt,N,,,,,,-43.48939896,172.5319977,
CHD,Chandler,US,AZ,,CHD,Williams AFB,N,North America,North America,North America,North America,North America,33.30777778,-111.6555556,
CHG,CHAOYANG,CN,,,CHG  FFF,Chaoyang Airport,N,,,,,,41.538101,120.434998,
OUS,Ourinhos,BR,SP,,,,N,,,,,,-22.96649933,-49.91329956,
PAV,Paulo Afonso,BR,BA,,,,N,,,,,,-9.40087986,-38.25059891,
CHN,Jeonju,KR,,,CHN,Jeonju Airport,N,,,,,,35.87808,127.119112,
CHO,Charlottesville,US,VA,,CHO,Charlottesville Albemarle Arpt,N,North America,North America,North America,North America,North America,38.1385994,-78.45290375,
CHP,Circle Hot Springs,US,AK,,CHP,Circle Hot Springs Arpt,N,North America,North America,North America,North America,North America,65.48549652,-144.6109924,
CHQ,Chania,GR,,,CHQ,Souda Arpt,N,,,,,,35.53170013,24.14970016,
CHR,Chateauroux,FR,,,CHR,Chateauroux Arpt,N,International,EMEA,Atlantic,Europe,EMEA,46.86027778,1.7211111,
CHS,Charleston,US,SC,,CHS,Charleston Intl Arpt,N,North America,North America,North America,North America,North America,32.89860153,-80.04049683,
PBB,Paranaiba,BR,MS,,,,N,,,,,,-19.65119934,-51.19940186,
CHU,Chuathbaluk,US,AK,,CHU,Chuathbaluk Arpt,N,North America,North America,North America,North America,North America,61.579102,-159.216003,
CHV,Chaves,PT,,,CHV,Chaves Arpt,N,,,,,,41.722356,-7.463064,
CHW,Cheltenham,GB,,,,Royal Well Bus Station,N,,,,,,,,
CHX,Changuinola,PA,,,CHX,Manuel Nino International,N,,,,,,9.458962,-82.515062,
POO,Pocos De Caldas,BR,MG,,,,N,International,Latin America,South America,South America,South America,-21.84300041,-46.56790161,
CIC,Chico,US,CA,,CIC,Chico Municipal Arpt,N,North America,North America,North America,North America,North America,39.79539871,-121.8580017,
CID,Cedar Rapids,US,IA,,CID,Cedar Rapids Municipal Arpt,N,North America,North America,North America,North America,North America,41.88470078,-91.71080017,
CIE,Collie,AU,WA,,CIE,Collie Arpt,N,International,Pac-North,Australia,Australia,APAC,-33.36669922,116.2170029,
CIF,Chifeng,CN,,,CIF,Yulong Arpt,N,,,,,,42.23500061,118.9079971,
CIG,Craig,US,CO,,CIG,Craig Moffat,N,North America,North America,North America,North America,North America,40.49520111,-107.5220032,
CIH,Changzhi,CN,,,CIH,Wangcun Arpt,N,,,,,,36.247501,113.125999,
CIJ,Cobija,BO,,,CIJ,Captian Anibal Arab Arpt,N,,,,,,-11.04039955,-68.78299713,
PPY,Pouso Alegre,BR,MG,,,,N,International,Latin America,South America,South America,South America,-22.28919983,-45.91910172,
CIL,Council,US,AK,,CIL,Council Arpt,N,North America,North America,North America,North America,North America,64.89790344,-163.7030029,
CIN,Carroll,US,IA,,CIN,Carroll Arpt,N,,,,,,42.0461998,-94.78900146,
CIO,Concepcion,PY,,,CIO,Carmelo Peralta Arpt,N,,,,,,-23.442363,-57.427253,
CIP,Chipata,ZM,,,CIP,Chipata Arpt,N,,,,,,-13.55830002,32.58720016,
QAU,Bebedouro,BR,,,,,N,,,,,,,,
CIT,Shimkent,KZ,,,CIT,Shimkent Arpt,N,,,,,,42.36420059,69.47889709,
CIW,Canouan Island,VC,,,CIW,Canouan Airport,N,,,,,,12.699,-61.3424,
CIX,Chiclayo,PE,,,CIX,J A Quinones Gonzales Arpt,N,,,,,,-6.787479877,-79.82810211,
CIY,Comiso,IT,,,CIY,Comiso Arpt,N,International,EMEA,Atlantic,Europe,EMEA,36.994601,14.607182,
CJA,Cajamarca,PE,,,CJA,Armando R Iglesias Arpt,N,,,,,,-7.139180183,-78.48940277,
CJB,Coimbatore,IN,,,CJB,Peelamedu Airport,N,,,,,,11.02999973,77.04340363,
CJC,Calama,CL,,,CJC,El Loa Arpt,N,,,,,,-22.49819946,-68.9036026,
CJI,Ciudad Real City,ES,,,CJI,Ciudad Real City Arpt,N,,,,,,,,
CJJ,Cheongju,KR,,,CJJ,Cheongju International Arpt,N,International,Pac-South,Asia,Asia,APAC,36.717008,127.498741,
QBK,Betim,BR,,,,,N,,,,,,,,
CJM,Chumphon,TH,,,CJM,Chumphon Arpt,N,International,Pac-North,Asia,Asia,APAC,10.71119976,99.36170197,
CJN,Cijulang,ID,,,CJN,Nusawiru,N,,,,,,,,
CJS,Ciudad Juarez,MX,,,CJS,Abraham Gonzalez International,N,International,Latin America,Mexico,North America,Mexico,31.63610077,-106.4290009,
CJU,Jeju City,KR,,,CJU  JCJ  JSP,Jeju Intl Arpt,N,,,,,,33.51129913,126.4929962,
CKB,Clarksburg,US,WV,,CKB,Clarksburg Benedum Arpt,N,North America,North America,North America,North America,North America,39.29660034,-80.22810364,
CKC,Cherkassy,UA,,,CKC,Cherkassy Arpt,N,International,EMEA,0,Europe,EMEA,49.41559982,31.99530029,
CKD,Crooked Creek,US,AK,,CKD,Crooked Creek Arpt,N,North America,North America,North America,North America,North America,61.86790085,-158.1349945,
CKE,Clear Lake,US,CA,,CKE,Clear Lake Arpt,N,North America,North America,North America,North America,North America,38.99060059,-122.901001,
CKG,Chongqing,CN,,,CKF  CKG  CKJ  CKP  WXB,Chongqing Arpt,N,,,,,,29.71920013,106.6419983,
CKH,Chokurdakh,RU,,,CKH,Chokurdakh Arpt,N,,,,,,70.62310028,147.9019928,
QCC,Camacari,BR,,,,,N,,,,,,,,
CKM,Clarksdale,US,MS,,CKM,Fletcher Field,N,,,,,,34.29970169,-90.51229858,
CKS,Carajas,BR,PA,,CKS,Carajas Arpt,N,International,Latin America,South America,South America,South America,-6.115277767,-50.00138855,
CKV,Clarksville,US,TN,,CKV,Outlaw Field,N,North America,North America,North America,North America,North America,36.62189865,-87.41500092,
QCF,Birigui,BR,,,,,N,,,,,,,,
CKY,Conakry,GN,,,CKY,Conakry Airport,N,,,,,,9.57689,-13.612,
CKZ,Canakkale,TR,,,CKZ,Canakkale Arpt,N,,,,,,40.13769913,26.42679977,
CLB,Colchester,GB,,,CLB,Colchester Bus Station,N,International,EMEA,Atlantic,Europe,EMEA,53.8484,-9.28037,
QCH,Colatina,BR,ES,,,,N,,,,,,-19.48699951,-40.57939911,
CLE,Cleveland,US,OH,,BKL  CGF  CLE,Hopkins Intl Arpt,N,North America,North America,North America,North America,North America,41.4117012,-81.84980011,
CLG,Coalinga,US,CA,,CLG,Coalinga Arpt,N,,,,,,36.15804334,-120.360117,
CLJ,Cluj,RO,,,CLJ,Napoca Arpt,N,,,,,,46.78519821,23.68619919,
CLL,College Station,US,TX,,CLL,Easterwood Field,N,North America,North America,North America,North America,North America,30.58860016,-96.36380005,
CLM,Port Angeles,US,WA,,CLM,W R Fairchild International Arpt,N,North America,North America,North America,North America,North America,48.12020111,-123.5,
CLO,Cali,CO,,,CLO,Alfonso B Aragon Intl,N,,,,,,3.54322,-76.3816,
QCJ,Botucatu,BR,SP,,,,N,,,,,,-22.939501,-48.467999,
CLQ,Colima,MX,,,CLQ,Colima Miguel De La Madrid Arpt,N,International,Latin America,Mexico,North America,Mexico,19.277,-103.577002,
CLR,Calipatria,US,CA,,CLR,Calipatria Arpt,N,,,,,,33.13150024,-115.5210037,
CLS,Chehalis,US,WA,,CLS,Centralia Arpt,N,North America,North America,North America,North America,North America,46.67699814,-122.9830017,
CLT,Charlotte,US,NC,,CLT  QWG,Douglas International Arpt,N,North America,North America,North America,North America,North America,35.2140007,-80.94309998,
CLU,Columbus,US,IN,,CLU,Columbus Municipal Arpt,N,North America,North America,North America,North America,North America,39.26190186,-85.89630127,
CLV,Caldas Novas,BR,GO,,CLV,Nelson R Guimaraes Arpt,N,,,,,,-17.72529984,-48.60749817,
CLW,Clearwater,US,FL,,CLW,Clearwater Executive Airpark,N,North America,North America,North America,North America,North America,27.97669983,-82.75869751,
CLY,Calvi,FR,,,CLY,Ste Catherine Arpt,N,International,EMEA,Atlantic,Europe,EMEA,42.5244444,8.7930556,
QCK,Cabo Frio Br,BR,,,,,N,,,,,,,,
CMA,Cunnamulla,AU,QLD,,CMA,Cunnamulla Arpt,N,,,,,,-28.03000069,145.621994,
CMB,Colombo,LK,,,CMB  RML,Bandaranaike Intl Arpt,N,,,,,,7.180759907,79.88410187,
QCN,Canela,BR,RS,,,,N,,,,,,-29.3701992,-50.83200073,
QCQ,Caraguatatuba,BR,,,,,N,,,,,,,,
CME,Ciudad Del Carmen,MX,,,CME,Ciudad Del Carmen Intl Arpt,N,International,Latin America,Mexico,North America,Mexico,18.65369987,-91.7990036,
CMF,Chambery,FR,,,CMF,Chambery Aix Les Bains Arpt,N,International,EMEA,Atlantic,Europe,EMEA,45.63809967,5.88022995,
CMG,Corumba,BR,MS,,CMG,Corumba International Airport,N,,,,,,-19.01194382,-57.67139053,
CMH,Columbus,US,OH,,CMH  LCK  OSU,Columbus John Glenn Intl Airport,N,North America,North America,North America,North America,North America,39.998001,-82.891899,
CMI,Champaign,US,IL,,CMI,University of Illinois Arpt,N,North America,North America,North America,North America,North America,40.03919983,-88.27809906,
CMK,Club Makokola,MW,,,CMK,Club Makokola Arpt,N,,,,,,-14.30690002,35.13249969,
QCX,Sao Caetano do Sul,BR,,,,,N,,,,,,,,
CMQ,Clermont,AU,QLD,,CMQ,Clermont Arpt,N,,,,,,-22.7730999,147.6210022,
CMR,Colmar,FR,,,CMR,Colmar Houssen Arpt,N,International,EMEA,Atlantic,Europe,EMEA,48.10990143,7.35901022,
CMU,Kundiawa,PG,,,CMU,Chimbu Airport,N,,,,,,-6.024290085,144.970993,
CMV,Coromandel,NZ,,,CMV,Coromandel Arpt,N,International,Pac-South,Australia,Australia,APAC,-36.79169846,175.5090027,
CMW,Camaguey,CU,,,CMW,Ignacio Agramonte Intl,N,,,,,,21.42029953,-77.84750366,
CMX,Houghton,US,MI,,CMX,Houghton County Memorial Arpt,N,North America,North America,North America,North America,North America,47.16839981,-88.4890976,
CMY,Sparta,US,WI,,CMY,Camp Mccoy Aaf,N,,,,,,43.958302,-90.7379,
QDE,Catanduva,BR,,,,,N,,,,,,,,
CNB,Coonamble,AU,NSW,,CNB,Coonamble Arpt,N,,,,,,-30.98329926,148.3760071,
CNC,Coconut Island,AU,QLD,,CNC,Coconut Island Arpt,N,International,Pac-North,Australia,Australia,APAC,-10.05000019,143.0700073,
CND,Constanta,RO,,,CND  CRN,Kogalniceanu Arpt,N,International,EMEA,Atlantic,Europe,EMEA,44.36220169,28.48830032,
CNE,Canon City,US,CO,,CNE,Canon City Arpt,N,North America,North America,North America,North America,North America,38.4280014,-105.1060028,
CNG,Cognac,FR,,,CNG,Parvaud Arpt,N,,,,,,45.65829849,-0.317499995,
CNJ,Cloncurry,AU,QLD,,CNJ,Cloncurry Arpt,N,,,,,,-20.66860008,140.5039978,
CNK,Concordia,US,KS,,CNK,Blosser Municipal Arpt,N,,,,,,39.54930115,-97.65229797,
CNL,Sindal,DK,,,CNL,Sindal Airport,N,,,,,,57.503502,10.2294,
CNM,Carlsbad,US,NM,,CNM,Cavern City Air Term,N,North America,North America,North America,North America,North America,32.33750153,-104.2630005,
CNN,Kannur,IN,,,CNN,Kannur International Airport,N,,,,,,,,
QDQ,Duque De Caxias,BR,,,,,N,International,Latin America,South America,South America,South America,-22.6667,-43.296101,
CNP,Neerlerit Inaat,GL,,,CNP,Neerlerit Inaat Arpt,N,,,,,,70.74310303,-22.65049934,
CNQ,Corrientes,AR,,,CNQ,Corrientes Arpt,N,,,,,,-27.4455,-58.7619,
QDV,Jundiai,BR,,,,,N,,,,,,,,
CNS,Cairns,AU,QLD,,CNS,Cairns Airport,N,,,,,,-16.88579941,145.7550049,
CNU,Chanute,US,KS,,CNU,Martin Johnson Arpt,N,,,,,,37.66880035,-95.48509979,
CNX,Chiang Mai,TH,,,CNX,Chiang Mai Intl Arpt,N,,,,,,18.76679993,98.96260071,
CNY,Moab,US,UT,,CNY,Moab Municipal,N,North America,North America,North America,North America,North America,38.75500107,-109.7549973,
COA,Columbia,US,CA,,COA,Columbia Arpt,N,North America,North America,North America,North America,North America,38.03039932,-120.4150009,
COC,Concordia,AR,,,COC,Comodoro Pierrestegui Arpt,N,,,,,,-31.2969,-57.9966,
COD,Cody,US,WY,,COD,Yellowstone Regional Arpt,N,,,,,,44.52019882,-109.0240021,
COE,Coeur D Alene,US,ID,,COE,Pappy Boyington Field Arpt,N,North America,North America,North America,North America,North America,47.77429962,-116.8199997,
COG,Condoto,CO,,,COG,Mandinga Arpt,N,,,,,,5.08333,-76.7,
COH,Cooch Behar,IN,,,COH,Cooch Behar Airport,N,,,,,,26.33049965,89.46720123,
COI,Cocoa,US,FL,,COF  COI,Merrit Island Arpt,N,,,,,,28.34160042,-80.6855011,
COJ,Coonabarabrn,AU,NSW,,COJ,Coonabarabran Arpt,N,,,,,,-31.33250046,149.2669983,
COK,Kochi,IN,,,COK,Cochin Internation Arpt,N,,,,,,10.152,76.401901,
COL,Coll Island,GB,,,COL,Coll island Arpt,N,International,EMEA,Atlantic,Europe,EMEA,56.60189819,-6.617780209,
CON,Concord,US,NH,,CON,Concord Municipal,N,North America,North America,North America,North America,North America,43.20270157,-71.50229645,
COO,Cotonou,BJ,,,COO,Cotonou Airport,N,,,,,,6.357230186,2.384350061,
QEU,Parnamirim,BR,,,,,N,,,,,,,,
COR,Cordoba,AR,,,COR,Pajas Blanco Arpt,N,,,,,,-31.323601,-64.208,
COS,Colorado Springs,US,CO,,AFF  COS  FCS,Colorado Springs Municipal Arpt,N,North America,North America,North America,North America,North America,38.805801,-104.700996,
QFS,Sao Fransisco,BR,,,,,N,,,,,,,,
COU,Columbia,US,MO,,COU,Columbia Regional,N,North America,North America,North America,North America,North America,38.81809998,-92.21959686,
QGB,Limeira,BR,SP,,,,N,,,,,,-22.603889,-47.411944,
CPB,Capurgana,CO,,,CPB,Capurgana Arpt,N,International,Latin America,South America,South America,South America,8.63333,-77.35,
CPC,Chapelco,AR,,,CPC,Aviador Carlos Campos Arpt,N,International,Latin America,South America,South America,South America,-40.075401,-71.137299,
CPD,Coober Pedy,AU,SA,,CPD,Coober Pedy Arpt,N,,,,,,-29.04000092,134.720993,
CPE,Campeche,MX,,,CPE,Campeche Intl Arpt,N,International,Latin America,Mexico,North America,Mexico,19.81679916,-90.50029755,
QGC,Lencois Paulista,BR,SP,,,,N,,,,,,-22.57839966,-48.77460098,
CPH,Copenhagen,DK,,,CPH  ZGH,Copenhagen Arpt,N,International,EMEA,Atlantic,Europe,EMEA,55.61790085,12.65600014,
CPM,Compton,US,CA,,CPM,Compton Arpt,N,North America,North America,North America,North America,North America,33.88999939,-118.2440033,
QGJ,Nova Friburgo,BR,,,,,N,,,,,,,,
CPO,Copiapo,CL,,,CPO,Desierto De Atacama Arpt,N,,,,,,-27.26119995,-70.77919769,
CPP,Pica,CL,,,CPP,Coposa Airport,N,,,,,,-20.7505,-68.683502,
CPQ,Campinas,BR,SP,,CPQ,International Campinas,N,,,,,,-22.85919952,-47.10820007,
CPR,Casper,US,WY,,CPR,Natrona County Intl Arpt,N,North America,North America,North America,North America,North America,42.90800095,-106.4639969,
CPT,Cape Town,ZA,,,CPT,Cape Town International,N,,,,,,-33.96480179,18.60169983,
CPV,Campina Grande,BR,PB,,CPV,Joao Suassuana Arpt,N,,,,,,-7.26992,-35.8964,
CPX,Culebra,US,PR,,CPX,Benjamin Rivera Noriega Arpt,N,North America,North America,North America,North America,North America,18.313289,-65.304324,
CQD,Shahre Kord,IR,,,CQD,Shahre Kord Arpt,N,,,,,,32.29719925,50.84220123,
CQF,Calais,FR,,,CQF,Aeroport Calais Dunkerque,N,,,,,,50.96210098,1.954759955,
CQM,Ciudad Real,ES,,,CQM  XJI,Ciudad Real Central Arpt,N,,,,,,38.85638889,-3.97,
CRA,Craiova,RO,,,CRA,Craiova Arpt,N,International,EMEA,Atlantic,Europe,EMEA,44.31809998,23.8885994,
CRC,Cartago,CO,,,CRC,Santa Ana Arpt,N,North America,North America,North America,North America,North America,4.75818,-75.9557,
CRD,Comodoro Rivadavia,AR,,,CRD,General E Mosconi Arpt,N,,,,,,-45.7853,-67.4655,
CRI,Crooked Island,BS,,,CRI,Colonel Hill Arpt,N,,,,,,22.74559975,-74.18240356,
CRK,Luzon Island,PH,,,CRK  NCP,Clark Field Arpt,N,International,Pac-South,Asia,Asia,APAC,15.186,120.559998,
CRM,Catarman,PH,,,CRM,Catarman National Airport,N,,,,,,12.5024004,124.6360016,
CRO,Corcoran,US,CA,,CRO,Corcoran Arpt,N,North America,North America,North America,North America,North America,36.102502,-119.595001,
